time,altitude,rc_ele,rc_thr,rc_rud,tx_ele,tx_thr,tx_rud,acc_X,acc_Y,acc_Z,gyro_pitch,gyro_roll,gyro_yaw
7.500707,5.454756669600489,-287.2134132561303,1849.0000001359351,1.0490819058066752,1145.9591020691714,2011.0000008996483,1501.6876070678547,819.4847832142163,367.45718351485044,3481.103279365573,-35.19882836137249,-53.380783114554426,-28.383521580465064
7.50171,5.454409775317441,-287.4640924101879,1849.0000001396631,1.034676495903656,1145.6987454694417,2011.0000009023586,1501.605573755286,797.683287752163,354.5529352632975,3368.637970111927,-36.41449719346093,-49.7526881247604,-27.776699481417314
7.502709,5.454062347813491,-287.7364212051901,1849.000000143283,1.0187130204759285,1145.4217518049936,2011.0000009050898,1501.5205010452944,775.7370563932814,342.1995475444166,3255.499793254346,-37.612477497558736,-46.15317564559564,-27.188319954160004
7.503714,5.45371439246247,-288.0307678319562,1849.0000001467927,1.0011627469372892,1145.1278978737846,2011.00000090784,1501.4323608213954,753.6788073152828,330.4203464881172,3141.8567689982433,-38.79002468989166,-42.58806505654393,-26.61946082257275
7.504713,5.4533659146595825,-288.3474910335703,1849.0000001501905,0.9819976079105586,1144.8169689532401,2011.0000009106077,1501.3411265059945,731.541904772014,319.2364492399619,3027.879523912164,-39.94441037941536,-39.06311456334453,-26.071143677276748
7.505713,5.453016919821224,-288.686939612599,1849.0000001534738,0.9611902393608975,1144.4887591454717,2011.0000009133917,1501.2467731140553,709.3602730293869,308.6666470827767,2913.7408067926526,-41.0729315590999,-35.584003927401305,-25.54433026980682
7.506714,5.45266741338481,-289.0494519382118,1849.0000001566407,0.9387140188209466,1144.1430717206194,2011.0000009161902,1501.1492773065943,687.168307993735,298.72730036092304,2799.6149970682263,-42.172919807724625,-32.15631728997939,-25.039919125907954
7.507715,5.452317400808593,-289.4353554537112,1849.0000001596893,0.9145431036701805,1143.7797194579198,2011.0000009190014,1501.0486174439498,665.0007868114651,289.4322461661,2685.6776078988887,-43.24175046418557,-28.78552613704814,-24.558742389720447
7.508717,5.451966887571484,-289.84496618499344,1849.000000162617,0.8886524694299451,1143.3985249840907,2011.0000009218245,1500.94477363876,642.892775729757,280.79271967662424,2572.1047861343673,-44.276851736805554,-25.47697245851741,-24.101562911621127
7.509718,5.451615879172871,-290.2785882504689,1849.0000001654228,0.8610179480347262,1142.9993211086294,2011.0000009246585,1500.8377278085989,620.8795365171602,272.8172899636677,2459.072811290661,-45.27571371104725,-22.23585216463972,-23.66907159369887
7.51072,5.451264381132433,-290.736513372983,1849.0000001681067,0.8316162660393176,1142.581951155602,2011.0000009275016,1500.727463728211,598.9964317492729,265.5118109875047,2346.7575956900364,-46.23589722063504,-19.06719883164049,-23.261885008090765
7.511723,5.450912398989957,-291.21902039428784,1849.0000001706678,0.800425082720682,1142.1462692915065,2011.000000930352,1500.6139670812813,577.278829267653,258.87938840452324,2235.3341878840192,-47.15504254939155,-15.975867857482154,-22.8805433045828
7.512726,5.450559938305152,-291.72637479262454,1849.000000173107,0.7674230280324621,1141.692140848781,2011.0000009332068,1500.4972255116852,555.762006119516,252.92036269188506,2124.9762814423543,-48.030877933786755,-12.966521116690593,-22.525508424931918
7.513723,5.450207004657465,-292.25882820398607,1849.0000001754272,0.73258974036928,1141.219442644524,2011.0000009360635,1500.37722867415,534.4810522816235,247.63230897154241,2015.8557311443535,-48.8612278388926,-10.043612210196976,-22.197162642187465
7.514726,5.449853603645892,-292.81661794763846,1849.000000177631,0.6959059040971753,1140.7280632939942,2011.0000009389184,1500.25396828427,513.4707744640932,243.0100537790163,1908.142078554209,-49.64402098280369,-7.211372411943936,-21.895807443605264
7.515725,5.44949974088878,-293.3999665564866,1849.000000179721,0.6573532868057763,1140.2179035184472,2011.0000009417688,1500.127438167811,492.76560027870676,239.0457088752819,1802.0020889006175,-50.377298086333155,-4.473797418067413,-21.621662775134798
7.516728,5.449145422023645,-294.0090813128791,1849.000000181701,0.6169147762370693,1139.688876446868,2011.000000944611,1499.9976343092376,472.39948304188374,235.72872204317065,1697.5993011146938,-51.059219325752544,-1.8346350059605376,-21.37486666358449
7.517729,5.448790652706983,-294.64415379045346,1849.0000001835754,0.5745744168449372,1139.1409079111522,2011.0000009474422,1499.864554899393,452.4058074651829,233.04594464439103,1595.0935928089323,-51.68807146675643,0.7026262915236092,-21.155475229411216
7.518731,5.448435438614067,-295.30535940262934,1849.000000185348,0.5303174459389823,1138.5739367342858,2011.0000009502598,1499.7282003822672,432.817296466482,230.98171554159322,1494.6407619030442,-52.26227465835328,3.134767397858394,-20.96346309889684
7.51973,5.448079785438744,-295.9928569583663,1849.0000001870214,0.48413032936552236,1137.9879150110764,2011.0000009530602,1499.5885735007814,413.6659193135331,229.51796081421972,1396.3921265182232,-52.780388866493084,5.458847702768135,-20.798724219570186
7.520732,5.447723698893253,-296.70678822580436,1849.0000001885976,0.4360007966780668,1137.3828083809785,2011.0000009558405,1499.4456793415081,394.98280128959095,228.63430852003387,1300.4941446676048,-53.241119928701224,7.672212797856101,-20.661073077261612
7.521739,5.4473671847080185,-297.4472775044134,1849.0000001900783,0.38591787574903846,1136.7585962925614,2011.000000958599,1499.2995253782567,376.79813505016983,228.30821757984896,1207.0880551649886,-53.6433252119733,9.772500884843382,-20.55024630719067
7.522736,5.447010248631455,-298.2144312062813,1849.0000001914652,0.33387192677399946,1136.1152722591664,2011.0000009613348,1499.1501215144485,359.14109382309687,228.51511969581986,1116.3095410538738,-53.98601885605942,11.757647826085387,-20.465904685156502
7.523735,5.446652896429765,-299.00833744717403,1849.0000001927604,0.2798546756191862,1135.452844105299,2011.000000964046,1498.9974801242024,342.0397465932198,229.2285730594428,1028.288416722722,-54.26837658333393,13.625890832250146,-20.40763547863936
7.524737,5.446295133886744,-299.8290656480047,1849.0000001939654,0.2238592464627449,1134.7713342032985,2011.0000009667308,1498.841616092048,325.52097541003235,230.42042647031067,943.1483397196376,-54.48974005567057,15.375770807740379,-20.37495513199419
7.525738,5.445936966803562,-300.67666614734975,1849.0000001950823,0.1658801936796942,1134.0707796998413,2011.0000009693883,1498.6825468511897,309.6103949616654,232.06099237641624,861.0065481117681,-54.64962075863017,17.00613339777396,-20.367312255405437
7.52674,5.445578400998575,-301.551169825654,1849.0000001961128,0.10591353292032638,1133.351232731819,2011.0000009720168,1498.5202924202347,294.332274571532,234.11922726585843,781.9736240548962,-54.74770339339109,18.516128799374656,-20.384090884075587
7.527742,5.445219442307114,-302.4525877417656,1849.0000001970595,0.04395677133149578,1132.6127606311475,2011.0000009746143,1498.3548754383064,279.70946279267446,236.56291779084353,706.1532840512208,-54.78384875646403,19.90521041067099,-20.424613972219415
7.528743,5.4448600965812775,-303.38091078244275,1849.0000001979254,-0.019991063129968845,1131.855446118062,2011.000000977179,1498.1863211984573,265.76331479714474,239.358870988336,633.6421961826167,-54.758096086219965,21.173132399364075,-20.488147085830324
7.529745,5.444500369689718,-304.3361093254726,1849.000000198713,-0.08592939334264627,1131.0793874824549,2011.0000009797093,1498.0146576792965,252.5136227812311,242.47310697555685,564.52982441649,-54.67066485449965,22.319946273456257,-20.573902258958398
7.530752,5.444140267517434,-305.3181329170432,1849.000000199426,-0.15385606567571597,1130.2846987528205,2011.0000009822031,1497.8399155747459,239.97854963024304,245.87105253822943,498.89829989481257,-54.52195598224107,23.345996536792946,-20.681041980365777
7.531749,5.4437797959655585,-306.3269099640045,1849.0000002000681,-0.2237673237050195,1129.4715098523766,2011.0000009846597,1497.6621283218424,228.17456610772865,249.51773408882437,436.82231893694126,-54.312552460585415,24.251915509546023,-20.80868328057418
7.53275,5.4434189609511465,-307.36234744165296,1849.000000200643,-0.2956577830410261,1128.6399667419346,2011.000000987078,1497.4813321265012,217.11639185269746,253.37796854457866,378.3690673169518,-54.043219362655165,25.038617389537368,-20.95590189291409
7.533752,5.44305776840696,-308.42433061766934,1849.000000201154,-0.36952040731965474,1127.790231549101,2011.0000009894582,1497.297565987149,206.81694048424973,257.41655075552603,323.5981702207308,-53.714903235004854,25.70729162379264,-21.12173646565237
7.534754,5.442696224281257,-309.5127227928352,1849.0000002016052,-0.44534648540675814,1126.922482683397,2011.000000991801,1497.110871716148,197.28726912586677,261.59843619798283,272.5616671515987,-53.32873086088104,26.25939565065402,-21.30519280525128
7.535753,5.442334334537578,-310.62736505914523,1849.0000002020008,-0.5231256098668573,1126.036914936893,2011.0000009941084,1496.921293958923,188.53653267163583,265.88891773755995,225.304010939883,-52.88600738990138,26.696647061659334,-21.505248133165523
7.536754,5.4419721051545205,-311.76807607592883,1849.0000002023446,-0.6028456567464362,1125.133739569962,2011.0000009963812,1496.728880210705,180.57194312408726,270.2537953574368,181.86208992459046,-52.388213831088294,27.0210152203177,-21.72085534030256
7.537758,5.441609542125524,-312.9346518645837,1849.0000002026402,-0.6844927667217502,1124.2131843817692,2011.0000009986213,1496.5336808308139,173.3987343381859,274.6595378419018,142.2652723157395,-51.83700390902321,27.234712363054097,-21.95094722437636
7.53876,5.441246651458653,-314.1268656225165,1849.0000002028912,-0.7680513276606784,1123.275493765122,2011.0000010008305,1496.3357490543872,167.02013250815742,279.0734355010351,106.53547171426084,-51.23420028665364,27.340184196813354,-22.19444069597412
7.539763,5.440883439176376,-315.34446755687424,1849.0000002031022,-0.8535039586476523,1122.3209287453165,2011.0000010030105,1496.135141001482,161.43733273281055,283.4637431185247,74.68723276174168,-50.5817901629155,27.340099998490466,-22.450240939379746
7.540762,5.440519911315342,-316.5871847386406,1849.0000002032778,-0.9408314955201176,1121.3497670026295,2011.0000010051624,1495.9319156834636,156.64948199029027,287.7998123997982,46.7278359128187,-49.88192025842893,27.237342213513887,-22.717245514123476
7.541762,5.4401560739261585,-317.854720977658,1849.0000002034224,-1.0300129779643363,1120.3623028781199,2011.000001007286,1495.7261350066053,152.65366884424813,292.0522132913651,22.657420366192337,-49.13689120767727,27.034995544553123,-22.994348382860785
7.542763,5.439791933073164,-319.1467567191233,1849.0000002035415,-1.1210256382176018,1119.3588473624122,2011.0000010093825,1495.5178637728193,149.4449201898916,296.1928436346218,2.4691242530354622,-48.34915138102215,26.736335516656307,-23.280443850598864
7.543764,5.439427494834207,-320.4629489620889,1849.0000002036406,-1.21384489142313,1118.339728067156,2011.0000010114516,1495.3071696774414,147.01620533012942,300.195026708912,-13.85075873944988,-47.52129016458602,26.344816502610207,-23.574430399616972
7.544764,5.439062765300421,-321.8029312004881,1849.0000002037252,-1.3084443276829951,1117.3052891788684,2011.0000010134925,1495.0941233039978,145.35844764908413,304.03359631001877,-26.322607040386135,-46.65603073039673,25.86405919257648,-23.875214403773413
7.545766,5.438697750576002,-323.16631338718395,1849.0000002037998,-1.4047957058534983,1116.2558913948806,2011.0000010155043,1494.8787981158825,144.46054412273193,307.68496910213736,-34.97328379574639,-45.75622233294145,25.297837495542442,-24.18171370529153
7.546768,5.438332456777972,-324.55268192152283,1849.000000203868,-1.5028689491262863,1115.1919118411329,2011.0000010174851,1494.6612704448726,144.3093928745854,311.12720407436984,-39.83593492815249,-44.82483217108061,24.65006486680063,-24.492861036603635
7.547767,5.437966890035953,-325.9615996608573,1849.0000002039326,-1.6026321424373933,1114.1137439715767,2011.0000010194333,1494.4416194764162,144.88992894846373,314.34004902756755,-40.94977308932694,-43.864936856034014,23.92478006505501,-24.807607269546654
7.548774,5.437601056491929,-327.3926059564788,1849.0000002039963,-1.704051531745125,1113.0217974489624,2011.0000010213469,1494.2199272316313,146.18516843083282,317.30497411458043,-38.35984785044317,-42.87971352705555,23.126132354125907,-25.124924474365308
7.54977,5.4372349623000185,-328.8452167143801,1849.0000002040617,-1.8070915252163768,1111.916498006815,2011.000001023225,1493.99627854595,148.17626101224786,320.0051925571184,-32.11680240312267,-41.87243065676936,22.25836617682784,-25.443808771769632
7.550771,5.436868613626232,-330.3189244812443,1849.0000002041327,-1.9117146963595442,1110.7982872924167,2011.0000010250658,1493.7707610443535,150.84255103138554,322.42566876560534,-22.276616992489807,-40.846438588100376,21.325805341696004,-25.763282962832744
7.551773,5.4365020166482525,-331.8131985560321,1849.0000002042118,-2.0178817891406595,1109.6676226906447,2011.0000010268675,1493.5434651131386,154.16164699631628,324.5531141942182,-8.900339278041116,-39.805159844234815,20.3328367761319,-26.08239892385853
7.552772,5.436135177555195,-333.32748512751306,1849.0000002043018,-2.1255517251177736,1108.5249771285303,2011.0000010286292,1493.3144838681706,158.10949952643,326.37597137076244,7.946198178733844,-38.75207925201133,19.283893911572452,-26.400239756459552
7.553773,5.435768102547372,-334.8612074380597,1849.0000002044046,-2.234681612626881,1107.370838860434,2011.00000103035,1493.0839131195708,162.66048760532817,327.8843866485336,28.19267306751514,-37.69073391749544,18.183439776949434,-26.715921686822558
7.554777,5.435400797836061,-336.4137659739932,1849.000000204521,-2.345226758050874,1106.2057112337557,2011.0000010320289,1492.8518513327945,167.78751298079598,329.07017233270307,51.76458082692522,-36.62470309014105,17.035949885769472,-27.02859571224095
7.555775,5.435033269643264,-337.9845386827407,1849.000000204651,-2.4571406792010873,1105.0301124351217,2011.000001033666,1492.6183995860642,173.4621024936854,329.92675893452713,78.58355409851656,-35.557597948933555,15.845895009818706,-27.337448997087417
7.556778,5.434665524201464,-339.5728812170318,1849.0000002047948,-2.570375120838982,1103.8445752170287,2011.0000010352612,1492.3836615241225,179.65451806439248,330.44913840017534,108.56769363069071,-34.49305134043284,14.617723939337834,-27.64170602411033
7.557781,5.434297567753387,-341.1781272063284,1849.0000002049521,-2.684880072363388,1102.6496466049425,2011.0000010368137,1492.147743308273,186.33387401490666,330.6337992446857,141.63190998642835,-33.434707494952356,13.355846336079594,-27.94062951000705
7.558781,5.433929406551763,-342.79958855564865,1849.0000002051231,-2.800603787686505,1101.4458875848877,2011.0000010383226,1491.910753562686,193.46826135737803,330.47865459326425,177.6882752512907,-32.386211743422045,12.064615792181032,-28.23352109655494
7.559779,5.43356104685908,-344.43655577190844,1849.0000002053077,-2.917492807319517,1100.2338727715937,2011.0000010397869,1491.672803316947,201.0248786377554,329.9829641900667,216.6463837680156,-31.35120025381763,10.74831321399355,-28.5197218301789
7.560782,5.433192494947339,-346.0882983178664,1849.000000205506,-3.035491982686242,1099.0141900572921,2011.0000010412048,1491.434005944833,208.97016888582445,329.14725147738005,258.41372074642624,-30.333289802450512,9.4111306552105,-28.798612443777074
7.561782,5.432823757097808,-347.7540649937203,1849.0000002057188,-3.1545445026806895,1097.7874402412954,2011.0000010425745,1491.1944770993082,217.2699621909468,327.9732168748706,302.89603741783156,-29.33606759217903,8.057155726943197,-29.069613455037313
7.562785,5.432454839600777,-349.433084346361,1849.0000002059471,-3.2745919224817257,1096.5542366405225,2011.0000010438932,1490.95433464374,225.88962339549906,326.4636483987641,349.99773122733893,-28.363081127104238,6.690356713080133,-29.33218509549381
7.563786,5.432085748755321,-351.12456510624855,1849.0000002061918,-3.395574194635289,1095.3152046811751,2011.0000010451583,1490.7136985793304,234.79420437456386,324.6223307542466,399.6222293912277,-27.417828151835593,5.314568516891299,-29.585827084308832
7.564788,5.4317164908690545,-352.827696651831,1849.0000002064537,-3.5174297024117056,1094.0709814717984,2011.0000010463662,1490.4726909687804,243.94860034966788,322.4539540109947,451.672373995236,-26.50374666306804,3.933479559325576,-29.830078260322487
7.565788,5.431347072257883,-354.54164950138073,1849.0000002067338,-3.64009529544267,1092.8222153580068,2011.0000010475121,1490.2314358561932,253.31770966501247,319.96402293179034,506.0508066783916,-25.624205001947953,2.5506197409683717,-30.064516085403998
7.566795,5.43097749924575,-356.265575832077,1849.000000207033,-3.763506327639327,1091.5695654591877,2011.0000010485926,1489.9900591832459,262.8665964355728,317.1587679682625,562.6603508404388,-24.782492037333274,1.1693495685250246,-30.288756031637696
7.56779,5.430607778164394,-357.99861002611397,1849.0000002073514,-3.887596697389686,1090.3137011875406,2011.0000010496058,1489.748688701655,272.5606554568445,314.0450588670757,621.4043892329195,-23.981807452307844,-0.20714946660370834,-30.502450864392173
7.568792,5.430237915353097,-359.7398692435649,1849.000000207688,-4.012298890030255,1089.0553017498455,2011.0000010505507,1489.5074538819742,282.36577874552046,310.6303217460453,682.1872347477572,-23.225252149001495,-1.5758831851842692,-30.705289832763548
7.569794,5.429867917158426,-361.48845402168064,1849.0000002080417,-4.137544022583308,1087.7950556323945,2011.0000010514266,1489.2664858187666,292.24852305898287,306.9224604048519,744.9144922051321,-22.515818789850442,-2.9340516364923404,-30.89699777812857
7.570796,5.429497789933991,-363.2434489002496,1849.0000002084118,-4.263261890747643,1086.5336600695568,2011.0000010522315,1489.0259171322025,302.1762777194505,302.929782531655,809.4934089658796,-21.85638249683569,-4.279054595704832,-31.07733417054785
7.571797,5.429127540040189,-365.00392307259347,1849.0000002087975,-4.389381018126992,1085.2718204964801,2011.0000010529636,1488.785881866142,312.11743204632603,298.6609313574369,875.8332122527022,-21.24969173375452,-5.608495622079356,-31.246092081606754
7.572799,5.428757173843956,-366.76893106172366,1849.0000002091958,-4.51582870767643,1084.010249986464,2011.000001053622,1488.5465153827658,322.04154167831575,294.12482319669675,943.8454311579054,-20.698359399951265,-6.92018467609051,-31.4030971011494
7.573799,5.428386697718509,-368.53751342112906,1849.0000002096042,-4.642531095343205,1082.7496686735772,2011.000001054206,1488.3079542538362,331.91949304603537,289.33059119840607,1013.4442014404626,-20.20485416691701,-8.212139312014632,-31.548206204454182
7.574801,5.4280161180430975,-370.3086974596171,1849.0000002100198,-4.769413205874358,1081.4908031611255,2011.0000010547144,1488.0703361486685,341.7236652370897,284.2875355170946,1084.5465513680995,-19.771492091626538,-9.482584480253145,-31.68130657580841
7.575804,5.427645441202746,-372.0814979895781,1849.00000021044,-4.896399010759339,1080.2343859166147,2011.0000010551473,1487.8337997189055,351.4280884801793,279.00508000269446,1157.072667036015,-19.400428542411913,-10.729950990363506,-31.802314394103927
7.576803,5.427274673587996,-373.8549180979906,1849.000000210862,-5.023411488271545,1078.9811546538847,2011.000001055503,1487.5984844801976,361.0085984638056,273.4927354013848,1230.946135787593,-19.093650474591044,-11.952872700583596,-31.911173585881283
7.577804,5.42690382159465,-375.62794993943595,1849.0000002112822,-5.150372685568275,1077.7318517031376,2011.0000010557794,1487.364530690898,370.4429856996722,267.76006896000376,1306.0941665685782,-18.85296909396778,-13.150182511969897,-32.007854551100394
7.578805,5.426532891623521,-377.39957555033726,1849.0000002116979,-5.2772037828040865,1076.4872233695999,2011.0000010559759,1487.1320792278939,379.7111391417821,261.8166802351847,1382.4477862592769,-18.680012946735392,-14.320907254785523,-32.09235286674041
7.579803,5.426161890080164,-379.1687676835881,1849.0000002121071,-5.403825159207887,1075.2480192815945,2011.0000010560914,1486.9012714597052,388.79518328013427,255.67218282646655,1459.9420112442363,-18.57622147423935,-15.46426156144262,-32.164687973114184
7.580805,5.425790823374624,-380.9344906626883,1849.0000002125082,-5.530156461069314,1074.0149917288104,2011.000001056126,1486.6722491169864,397.6796079432068,249.33619168122095,1538.5159936907464,-18.542839070320845,-16.579640824394094,-32.224901847578145
7.581808,5.425419697921176,-382.69570125445716,1849.0000002129002,-5.656116671575088,1072.7888949915807,2011.0000010560796,1486.4451541605845,406.35139006614713,242.81831555916108,1618.113142212099,-18.58090967742165,-17.66661333931067,-32.2730576702328
7.582811,5.425048520138071,-384.4513495593526,1849.0000002132813,-5.781624182430985,1071.5704846619958,2011.0000010559522,1486.2201286473119,414.80010671163217,236.12815419611195,1698.6812167850337,-18.691271955320367,-18.724911734052313,-32.30923848634464
7.58381,5.424677296447272,-386.20037991838313,1849.0000002136496,-5.906596867199969,1070.3605169577027,2011.000001055744,1485.9973145936074,423.01803866744905,229.27529967102404,1780.1723979701194,-18.874555053402247,-19.754423782578105,-32.333545870604574
7.584817,5.424306033274193,-387.94173183555966,1849.0000002140043,-6.030952156281764,1069.1597480292558,2011.0000010554547,1485.776853837264,431.0002639886061,222.26934145684797,1862.5433306466582,-19.131175013942592,-20.755182700153956,-32.34609859889974
7.585814,5.4239347370474364,-389.67434091480027,1849.0000002143436,-6.154607113453764,1067.9689332619093,2011.0000010550846,1485.5588878974158,438.74474090174004,215.11987462425463,1945.755142618546,-19.46133183037108,-21.727357012119704,-32.347031333877815
7.586815,5.423563414198537,-391.3971398101623,1849.0000002146655,-6.277478513887729,1066.7888265727593,2011.0000010546325,1485.3435578329866,446.2523795452113,207.8365106661337,2029.773438573814,-19.86500718106848,-22.671240083171288,-32.33649333109781
7.587815,5.423192071161698,-393.1090591882439,1849.0000002149693,-6.399482923551085,1065.620179704159,2011.0000010540978,1485.1310040998064,453.52710207896195,200.4288904187989,2114.5682699883846,-20.341962855742747,-23.587239387683656,-32.31464717291547
7.588817,5.422820714373526,-394.8090287015641,1849.000000215254,-6.520536779896163,1064.463741514336,2011.0000010534802,1484.921366406616,460.5758907631661,192.90669857122958,2200.114081654761,-20.89173988761526,-24.475865594251736,-32.281667537424106
7.589818,5.422449350272772,-396.49597797170105,1849.0000002155177,-6.640556473735338,1063.3202572661392,2011.0000010527808,1484.714783570173,467.4088236730062,185.27967927501712,2286.38963559029,-21.513658400390714,-25.337721529833463,-32.23774000979759
7.590821,5.4220779853000645,-398.16883758094554,1849.0000002157587,-6.759458432195193,1062.1904679148458,2011.0000010520014,1484.511393369678,474.03909778779996,177.55765239379826,2373.3779131388587,-22.206818174249108,-26.173491081308118,-32.18305994332661
7.591822,5.421706625897646,-399.82654007120146,1849.0000002159743,-6.8771592026385004,1061.0751093959595,2011.0000010511437,1484.3113324007418,480.4830392657026,169.7505299608741,2461.065996126219,-22.97009993029768,-26.983928085624452,-32.117831377321664
7.592824,5.421335278509109,-401.4680209488512,1849.0000002161617,-6.993575537439163,1059.974911913927,2011.0000010502097,1484.1147359291183,486.76010078991754,161.8683324463952,2549.4449279647583,-23.802167328899383,-27.769845254650857,-32.04226601886676
7.593827,5.420963949579137,-403.09221969428455,1849.000000216318,-7.10862447949195,1058.890599232705,2011.000001049201,1483.9217377444254,492.8928459480362,153.92120446967084,2638.5095556315337,-24.7014696746549,-28.532103177792038,-31.956582295167824
7.594826,5.420592645553236,-404.6980807747829,1849.00000021644,-7.22222344833604,1057.822887969111,2011.0000010481206,1483.7324700140832,498.9069206815232,145.91942962634658,2728.2583534676896,-25.66624531950889,-29.271599444469025,-31.861004482959103
7.595825,5.420221372877472,-406.284554659434,1849.0000002165227,-7.334290326768873,1056.7724868898895,2011.000001046971,1483.5470631376977,504.83101191566806,137.87344413297112,2818.693229772761,-26.69452575495779,-29.989257929412272,-31.75576192106687
7.596827,5.419850137998201,-407.8505988347473,1849.0000002165627,-7.444743547824685,1055.7400962134263,2011.0000010457559,1483.3656456021192,510.69679354934016,129.7938490217982,2909.819317198729,-27.784140384016055,-30.686018286108208,-31.64108831173675
7.597827,5.41947894736181,-409.3951788196315,1849.0000002165564,-7.553502181990344,1054.7264069170312,2011.000001044478,1483.1883438374011,516.5388600463004,121.69142064603058,3001.644747990198,-28.932721962996204,-31.362825697583744,-31.51722111569419
7.598831,5.419107807414452,-410.91726917839156,1849.0000002165,-7.660486024529688,1053.7321000506995,2011.0000010431402,1483.015282073887,522.3946479235781,113.57711928007464,3094.1804151712167,-30.137712702174646,-32.02062093896092,-31.38440104509811
7.59983,5.4187367246017715,-412.4158545304023,1849.00000021639,-7.76561568278658,1052.7578460582513,2011.000001041744,1482.846582200643,528.3043454761072,105.46209562093162,3187.439720846207,-31.39637101337863,-32.66033081246058,-31.2428716574534
7.600832,5.41836570536864,-413.8899305551165,1849.0000002162244,-7.868812663336175,1051.804304106729,2011.0000010402916,1482.682363625461,534.3107911097699,97.35769501573692,3281.438312859823,-32.705778892093356,-33.28285902181719,-31.09287905203975
7.601835,5.417994756158883,-415.33850499107064,1849.0000002160016,-7.969999458853694,1050.8721214249294,2011.0000010387846,1482.5227431366434,540.4593606771863,89.2754592564811,3376.193811144226,-34.06284992246798,-33.889077558128946,-30.934671668518632
7.60284,5.417623883415015,-416.76059862755824,1849.0000002157205,-8.069099634569987,1049.9619326519276,2011.000001037224,1482.3678347667883,546.7978442224455,81.22712579551029,3471.7255251671795,-35.464337895824656,-34.479818672000064,-30.768500185336002
7.603836,5.417253093577962,-418.15524628764814,1849.0000002153813,-8.166037914183644,1049.074359196443,2011.0000010356096,1482.2177496587785,553.3763125433985,73.22462424368561,3568.054163975807,-36.906846036535484,-35.05586750698628,-30.59461751365808
7.604839,5.416882393086805,-419.52149780123636,1849.0000002149839,-8.260740265100127,1048.2100086078872,2011.0000010339425,1482.072595934186,560.2469739747888,65.2800700165225,3665.2015404046447,-38.38683683225763,-35.61795546676699,-30.413278881050243
7.605839,5.416511788378507,-420.85841896682973,1849.0000002145273,-8.353133982869215,1047.3694739599132,2011.0000010322235,1481.9324785642912,567.4640217847697,57.40575499265496,3763.19027107927,-39.900642466937676,-36.16675438301066,-30.22474199785582
7.606841,5.4161412858876465,-422.1650925007736,1849.0000002140116,-8.443147774692886,1046.5533332472758,2011.0000010304536,1481.7974992439297,575.0834725641831,49.61413504559677,3862.043473894898,-41.44447585353383,-36.70287154214575,-30.029267297994014
7.607841,5.41577089204615,-423.4406189726502,1849.0000002134368,-8.53071184187659,1045.7621487967779,2011.0000010286337,1481.6677562683592,583.162995975589,41.91781430772648,3961.7844646792946,-43.014442258882035,-37.22684561678511,-29.82711824446522
7.608844,5.415400613283025,-424.6841177255909,1849.000000212803,-8.615757961097556,1044.9964666930641,2011.0000010267638,1481.5433444133473,591.7617362208313,34.32952602944914,4062.436454757448,-44.606551506369144,-37.73914353160519,-29.618561688207922
7.609844,5.415030456024087,-425.89472778026754,1849.000000212109,-8.698219564364349,1044.2568162199987,2011.000001024843,1481.4243548186823,600.9401255854314,26.86210991108909,4164.022251118119,-46.216730734228484,-38.24015827520569,-29.40386826729637
7.610846,5.414660426691685,-427.071608721352,1849.000000211355,-8.778031817542523,1043.5437093183375,2011.0000010228712,1481.3108748752957,610.7596904285004,19.528485813264854,4266.563960837312,-47.84083767905186,-38.730207650624315,-29.183312832176412
7.611851,5.414290531704436,-428.21394156525554,1849.000000210541,-8.855131697321553,1042.8576400603881,2011.0000010208475,1481.2029881161925,621.2828500103864,12.341623794240705,4370.082701340156,-49.47467444551074,-39.209533939453564,-28.957174882097398
7.612849,5.413920777476955,-429.3209296079865,1849.000000209666,-8.929458066498723,1042.1990841423253,2011.0000010187712,1481.1007741113833,632.572708587498,5.314510479156062,4474.598317981834,-51.114001713865584,-39.67830443904203,-28.725738998342486
7.61385,5.413551170419586,-430.39179925199403,1849.0000002087302,-9.000951747456012,1041.5684983948104,2011.000001016642,1481.004308367006,644.6928412534382,-1.5398881659841772,4580.129110302675,-52.754553326447834,-40.13661281956538,-28.489295261303102
7.614853,5.413181716938132,-431.4258008108918,1849.0000002077343,-9.069555593706676,1040.9663203125403,2011.0000010144593,1480.9136622288204,657.7070740648822,-8.208667505958964,4686.691568165765,-54.392051183633825,-40.58448123784336,-28.248139640714566
7.615852,5.412812423433577,-432.42220929098767,1849.0000002066793,-9.135214559389073,1040.3929676033238,2011.0000010122228,1480.8289027902572,671.6792590557213,-14.679028122089406,4794.300118821356,-56.022220370310464,-41.02186313730663,-28.00257435116438
7.616854,5.412443296301828,-433.38032514857537,1849.000000205567,-9.197875766586726,1039.8488377572532,2011.0000010099327,1480.7500928051888,686.6730448096528,-20.9383225976094,4902.966885765288,-57.6408044267199,-41.44864665779375,-27.752908167931455
7.617854,5.412074341933441,-434.29947502197916,1849.0000002044,-9.257488570355608,1039.334307636517,2011.000001007589,1480.6772906055833,702.7516433257285,-26.974104808656097,5012.701460073231,-59.24358067334027,-41.864658573960895,-27.499456700973507
7.618857,5.411705566713356,-435.17901243737623,1849.0000002031804,-9.314004621342335,1038.8497330863624,2011.0000010051915,1480.610550024193,719.9775939700666,-32.77418125504277,5123.510684704277,-60.82637549788079,-42.269668676125534,-27.242542627179716
7.619855,5.411336977020614,-436.0183184874577,1849.0000002019108,-9.367377925880218,1038.3954485676966,2011.0000010027404,1480.549920322422,738.4125253574991,-38.32666390400832,5235.398452081896,-62.38507951296844,-42.66339450188008,-26.982495882632076
7.620863,5.410968579228101,-436.816802482029,1849.0000002005947,-9.41756490345394,1037.9717668117808,2011.0000010002366,1480.495446123503,758.1169160477878,-43.62002397199719,5348.365515084061,-63.915662494993434,-43.045506321001234,-26.719653817480996
7.62186,5.410600379702267,-437.5739025696892,1849.000000199236,-9.464524441427928,1037.5789784974513,2011.00000099768,1480.447167351109,779.1498549714274,-48.643146034920754,5462.409311414148,-65.41418801730651,-43.415632270845315,-26.454361316248086
7.622861,5.410232384802863,-438.28908632976743,1849.0000001978372,-9.508217946938101,1037.2173519512676,2011.0000009950706,1480.4051191735127,801.5688025197564,-53.38538183601538,5577.5238011865395,-66.87682769435767,-43.7733635357531,-26.18697088615007
7.623861,5.40986460088267,-438.9618513337362,1849.000000196401,-9.54860939585167,1036.887132870964,2011.0000009924104,1480.3693319533959,825.4293532430321,-57.83660315145406,5693.699317452009,-68.29987495760396,-44.118259463314246,-25.917842715580196
7.624863,5.409497034287226,-439.59172567536115,1849.0000001949304,-9.585665378704874,1036.588544072549,2011.0000009897,1480.3398312034112,850.7850010984326,-61.98725307616377,5810.922429312619,-69.6797582892759,-44.44985251367156,-25.64734470427327
7.625865,5.409129691354563,-440.17826846888926,1849.000000193427,-9.619355143533877,1036.3217852613661,2011.0000009869416,1480.3166375475764,877.6869081779439,-65.82839510480707,5929.175817237337,-71.0130538463089,-44.76765294555706,-25.375852465992725
7.626866,5.408762578414924,-440.7210703146219,1849.0000001918936,-9.649650635519608,1036.0870328274,2011.0000009841376,1480.2997666885774,906.1836778244331,-69.35175940478489,6048.438160188631,-72.29649741359604,-45.07115315364889,-25.103749303974677
7.627868,5.408395701790504,-441.2197537312622,1849.0000001903338,-9.676526533373146,1035.8844396650773,2011.00000098129,1480.289229381048,936.3211330137375,-72.54978570869328,6168.684034205537,-73.52699563288934,-45.35983158478892,-24.831426158991167
7.62887,5.408029067795181,-441.6739735544702,1849.0000001887504,-9.699960282394146,1035.7141350177824,2011.0000009784014,1480.2850314108814,968.1421008422567,-75.41566229201979,6289.883822156623,-74.70163646097248,-45.63315617439608,-24.5592815297186
7.629875,5.407662682734248,-442.08341730110504,1849.000000187146,-9.7199321241409,1035.5762243472802,2011.0000009754756,1480.2871735806164,1001.6862039144584,-77.94336054665168,6412.003634471795,-75.81769881788846,-45.89058725836214,-24.28772136491444
7.630873,5.407296552904143,-442.44780549867994,1849.0000001855244,-9.736425122656605,1035.4707892282024,2011.000000972517,1480.2956517009397,1036.9896593742403,-80.12766471023727,6535.005240778548,-76.87266139275538,-46.13157992962974,-24.017158926528154
7.631874,5.406930684592171,-442.76689197960116,1849.0000001838882,-9.749425187202435,1035.3978872677267,2011.0000009695293,1480.310456588328,1074.085086269818,-81.96419636377505,6658.846012499185,-77.86421058087639,-46.355585822542935,-23.748014622295006
7.632875,5.406565084076251,-443.0404641398092,1849.0000001822402,-9.758921091454011,1035.3575520505492,2011.0000009665162,1480.3315740688486,1113.0013218854588,-83.44943336359128,6783.478876602966,-78.7902475313338,-46.562054321915404,-23.48071580574916
7.633876,5.406199757624632,-443.26834316148586,1849.0000001805831,-9.764904489123811,1035.3497931092165,2011.000000963482,1480.3589849881237,1153.7632476167537,-84.58072292841781,6908.852280843698,-79.64889428894475,-46.75043320743793,-23.215696541137078
7.634877,5.405834711495627,-443.450384199539,1849.0000001789197,-9.767369925978018,1035.3745959198573,2011.0000009604325,1480.392665227456,1196.3916249110612,-85.35628865764896,7034.910170941311,-80.43849901824117,-46.920168757317285,-22.953397330583897
7.635877,5.405469951937346,-443.58647653162296,1849.0000001772526,-9.766314848222228,1035.4319219233225,2011.000000957372,1480.4325857261058,1240.9029417431352,-85.77523131362923,7161.591980278309,-81.15764029992113,-47.07070534770413,-22.69426480122141
7.63688,5.405105485187427,-443.6765436714989,1849.0000001755855,-9.761739607236391,1035.521708571713,2011.0000009543053,1480.478712509694,1287.3092700495138,-85.83752325979331,7288.832632771837,-81.80513049197624,-47.20148459634702,-22.43875135083891
7.637883,5.404741317472773,-443.7205434455857,1849.000000173923,-9.753647460645306,1035.6438694002425,2011.0000009512376,1480.5310067246999,1335.618134505353,-85.54399650834866,7416.56255964308,-82.38001814849439,-47.31194410965872,-22.187314751763715
7.638889,5.404377455009285,-443.7184680325987,1849.0000001722685,-9.742044569716834,1035.7982941243586,2011.0000009481753,1480.5894246790097,1385.8323929947974,-84.89632439638056,7544.707730832857,-82.88158948920646,-47.40151590141713,-21.940417713839025
7.639884,5.404013904001593,-443.67034396621915,1849.000000170626,-9.726939993085972,1035.9848487620065,2011.000000945124,1480.6539178884716,1437.950129100601,-83.89699697785143,7673.189701801988,-83.30936891272194,-47.4696245579647,-21.698527408361123
7.640886,5.4036506706427945,-443.5762321007823,1849.000000168999,-9.70834567680888,1036.2033757809002,2011.000000942088,1480.7244331293873,1491.9645569198158,-82.54929029066285,7801.925676405666,-83.66311854661927,-47.51568522853125,-21.46211495563017
7.641887,5.4032877611141865,-443.43622754001956,1849.000000167391,-9.686276440756815,1036.4536942706277,2011.0000009390722,1480.8009124968723,1547.8639384986993,-80.8572297320062,7930.8285864432255,-83.94283682839935,-47.53910152020859,-21.231654879373753
7.64289,5.4029251815849975,-443.2504595289351,1849.0000001658057,-9.66074996136591,1036.7356001393914,2011.00000093608,1480.8832934690015,1605.6315141701625,-78.8255478503893,8059.807188360569,-84.14875611282086,-47.53926337569712,-21.00762453167046
7.643889,5.402562938212124,-443.01909130894336,1849.0000001642468,-9.631786750764727,1037.0488663351507,2011.000000933115,1480.9715089766514,1665.245446069643,-76.4596369373059,8188.766177426377,-84.28133930308547,-47.515545008937465,-20.790503492087208
7.644893,5.4022010371398625,-442.7423199364399,1849.000000162716,-9.599410132307431,1037.393243090906,2011.000000930181,1481.0654874789434,1726.6787750990693,-73.76549687362325,8317.606319520431,-84.34127550535096,-47.46730296958492,-20.580772944595708
7.645895,5.401839484499647,-442.4203760650244,1849.0000001612145,-9.563646212546486,1037.7684581938322,2011.0000009272815,1481.1651530441725,1789.899391602671,-70.74967875364207,8446.22460047007,-84.32947470815009,-47.39387440194021,-20.378915035508182
7.646897,5.401478286409784,-442.05352369164086,1849.000000159743,-9.52452384968471,1038.174217277936,2011.0000009244202,1481.270425436108,1854.8700200119983,-67.41922487206708,8574.514392656973,-84.24706149098151,-47.29457555704365,-20.18541221521131
7.6479,5.401117448975184,-441.64205986694674,1849.0000001583014,-9.48207461855271,1038.610204139883,2011.0000009216017,1481.3812202055396,1921.5482177097158,-63.78160571489668,8702.365638399913,-84.09536777016746,-47.16870060794833,-20.000746565932943
7.6489,5.400756978287104,-441.1863143702684,1849.0000001568908,-9.436332772163658,1039.0760810776117,2011.0000009188304,1481.4974487869265,1989.8863883514005,-59.844654643879586,8829.665049408963,-83.87592459531527,-47.01552080802443,-19.82539911715134
7.6499,5.400396880422879,-440.6866493495499,1849.000000155512,-9.387335199903568,1039.5714892513085,2011.0000009161101,1481.6190186000067,2059.831809870391,-55.616501005133195,8956.29632141133,-83.59045301610458,-46.834284021343045,-19.6598491495631
7.6509,5.400037161445667,-440.1434589267462,1849.000000154166,-9.335121382421384,1040.0960490663063,2011.0000009134435,1481.74583315621,2131.326677371105,-51.10550242511581,9082.140362876307,-83.2408540460366,-46.624214643819684,-19.504573487893545
7.651902,5.399677827404179,-439.5571687691618,1849.0000001528545,-9.279733343289335,1040.6493605774174,2011.0000009108323,1481.8777921697067,2204.308161089538,-46.32017708065523,9207.075536623102,-82.82919775700077,-46.38451392476102,-19.36004578239025
7.652903,5.399318884332425,-438.9282356272824,1849.0000001515793,-9.221215597510291,1041.2310039142055,2011.0000009082785,1482.0147916729156,2278.7084795642704,-41.26913674345406,9330.977912985409,-82.35771154626342,-46.1143606911118,-19.226735778567793
7.653906,5.398960338249453,-438.25714683969085,1849.0000001503424,-9.159615096955108,1041.8405397266545,2011.0000009057837,1482.1567241362857,2354.454988115869,-35.96102140287287,9453.72153313373,-81.82876762607523,-45.81291247091484,-19.105108574517978
7.654908,5.398602195159086,-437.5444198057091,1849.0000001491437,-9.0949811728193,1042.4775096506746,2011.000000903349,1482.3034785921561,2431.4702826765806,-30.404436263594434,9575.178681122261,-81.24486979586453,-45.47930700809757,-18.995623864651982
7.655907,5.39824446104966,-436.7906014264498,1849.0000001479823,-9.027365475194761,1043.1414367928546,2011.0000009009752,1482.4549407624838,2509.6723189458694,-24.607891897199078,9695.220163231812,-80.60863956791566,-45.11266415778789,-18.898735167980533
7.656914,5.39788714189377,-435.9962675150071,1849.0000001468563,-8.95682190985865,1043.8318262338378,2011.0000008986642,1482.6109931902242,2588.974546771978,-18.579748299420974,9813.715593222632,-79.92280172872735,-44.71208815025706,-18.81488903807929
7.657911,5.397530243648017,-435.1620221765601,1849.0000001457631,-8.883406572388097,1044.5481655496694,2011.0000008964178,1482.7715153741356,2669.286059577238,-12.328163568934386,9930.533682188941,-79.19016942873726,-44.27667021238243,-18.744524250957152
7.658914,5.397173772252745,-434.2884971592082,1849.0000001447,-8.80717767971573,1045.2899253504356,2011.0000008942368,1482.9363839067719,2750.511758557641,-5.861047879981212,10045.542531816876,-78.4136289018111,-43.80549153782682,-18.68807096634008
7.659913,5.396817733631794,-433.37635117639917,1849.000000143665,-8.72819549924732,1046.0565598354892,2011.0000008921222,1483.1054726154196,2832.552531297583,0.813976629298644,10158.609929984728,-77.59612392229155,-43.2976266002337,-18.64594985754596
7.660915,5.396462133692239,-432.426269201855,1849.0000001426563,-8.646522275668705,1046.8475073645318,2011.000000890075,1483.278652705728,2915.305444350906,7.6896094881776085,10269.603647802169,-76.74064011162918,-42.75214680692105,-18.618571205162027
7.661916,5.39610697832413,-431.4389617379429,1849.0000001416731,-8.562222155574627,1047.6621910438064,2011.000000888095,1483.4557929077794,2998.6639492513254,14.758898543934912,10378.391737355652,-75.85018920929691,-42.16812449328652,-18.606333949961723
7.662919,5.395752273400239,-430.41516405847455,1849.0000001407154,-8.475361110056912,1048.5000193266321,2011.0000008861814,1483.636759624342,3082.5181013307483,22.015259203283144,10484.842829600808,-74.92779342435671,-41.5446372602022,-18.60962470072352
7.663919,5.395398024775805,-429.3556354269578,1849.000000139784,-8.386006855393608,1049.3603866274943,2011.0000008843342,1483.8214170810586,3166.7547906442346,29.452485915900468,10588.826432009395,-73.97646998493146,-40.88077265820442,-18.628816692845273
7.664921,5.395044238288281,-428.26115829135887,1849.000000138881,-8.294228771984246,1050.242673948884,2011.0000008825534,1484.0096274783027,3251.2579842264277,37.0647556384593,10690.213225728145,-72.99921600277823,-40.175633223471834,-18.664268694108888
7.665927,5.394690919757086,-427.1325374564644,1849.000000138007,-8.200097821679458,1051.1462495200612,2011.0000008808381,1484.2012511444436,3335.908978836495,44.84662311094599,10788.87536213046,-71.99899376850007,-39.42834187138689,-18.71632385496209
7.666924,5.394338074983348,-425.9705992349669,1849.0000001371639,-8.103686463655832,1052.070469446895,2011.0000008791883,1484.3961466902604,3420.5866632869875,52.79300787526853,10884.686758731836,-70.9787165890044,-38.63804765349018,-18.78530850241167
7.667923,5.393985709749659,-424.776190578428,1849.0000001363544,-8.005068568989094,1053.0146783719115,2011.0000008776049,1484.594171164235,3505.167789396411,60.89917306766948,10977.523394489739,-69.94123527251581,-37.80393188222619,-18.871530878892305
7.668925,5.3936338298198265,-423.55017818930173,1849.0000001355813,-7.904319334080579,1053.978210143669,2011.0000008760887,1484.79518020846,3589.52725055635,69.16069612005327,11067.263604514228,-68.88932535827149,-36.925214624419745,-18.97527982983709
7.669925,5.393282440938618,-422.29344761523004,1849.0000001348474,-7.801515193093263,1054.9603884945684,2011.0000008746417,1484.9990282149024,3673.5383668629142,77.57343160995568,11153.788374173804,-67.82567517873026,-36.00116155847411,-19.096823445593095
7.670928,5.392931548831517,-421.00690232684525,1849.0000001341552,-7.696733729554337,1055.9605277261996,2011.0000008732648,1485.205568481761,3757.0731757309904,86.13346660346666,11236.98163249122,-66.75287483220437,-35.03109118167343,-19.23640766445502
7.671928,5.392581159204474,-419.6914627803379,1849.0000001335077,-7.5900535872813135,1056.9779334013194,2011.0000008719587,1485.4146533696703,3840.0027268901968,94.83706893862657,11316.730544587279,-65.67340613314684,-34.01438234303443,-19.394254844077558
7.672929,5.392231277743659,-418.3480654660662,1849.0000001329065,-7.48155438078794,1058.0119030415476,2011.0000008707245,1485.6261344574964,3922.1973806550736,103.68062899688084,11392.925802750877,-64.58963359554325,-32.950482064912556,-19.57056230895784
7.67393,5.391881910115212,-416.97766194450173,1849.0000001323535,-7.371316605324837,1059.0617268298681,2011.000000869564,1485.8398626974836,4003.527108369532,112.6605956049871,11465.461915496453,-63.50379649187061,-31.838913604504445,-19.765500882654912
7.674938,5.391533061965011,-415.58121787081683,1849.0000001318506,-7.259421546708016,1060.126688317006,2011.000000868479,1486.0556885695125,4083.8617939466108,121.77340679716858,11534.237493723582,-62.41800201604587,-30.67928469583001,-19.979213415150376
7.675934,5.3911847389184215,-414.15971200943403,1849.0000001313995,-7.145951191086164,1061.2060651307509,2011.0000008674713,1486.273462234235,4163.071535458051,131.01541624544927,11599.15553282753,-61.33421956415482,-29.471295904410134,-20.211813317958768
7.676936,5.39083694658006,-412.7141352398684,1849.000000131003,-7.030988134794997,1062.299129687287,2011.0000008665427,1486.4930336848558,4241.026945772359,140.38281623358995,11660.123689334847,-60.25427613240499,-28.214749020556667,-20.463383121672376
7.677938,5.390489690533541,-411.2454895552013,1849.0000001306619,-6.91461549444407,1063.4051499035886,2011.0000008656941,1486.7142528973418,4317.59945129283,149.87155810582414,11717.054550365621,-59.17985281864418,-26.909555412279047,-20.733973072055264
7.67894,5.390142976341246,-409.7547870545337,1849.000000130378,-6.796916817378039,1064.5233899099467,2011.0000008649256,1486.9369699788397,4392.661587905996,159.47727116475704,11769.865893965336,-58.11248240262283,-25.555744254571536,-21.023599781331622
7.679939,5.389796809544079,-408.24304893076993,1849.0000001301544,-6.677975992650711,1065.653110761694,2011.000000864237,1487.1610353141025,4466.087293313707,169.19518102244595,11818.48093811491,-57.053547971153066,-24.15347054799625,-21.332244950916802
7.680941,5.389451195661231,-406.7113044550838,1849.0000001299943,-6.557877162646138,1066.793571149212,2011.0000008636287,1487.3862997097297,4537.752194985958,179.02002842404582,11862.828576028236,-56.00428254699922,-22.703022836341187,-21.659854180694406
7.681942,5.389106140189936,-405.16058995941887,1849.0000001299015,-6.436704635476603,1067.944028105306,2011.0000008630984,1487.6126145360386,4607.533893034478,188.9459895640297,11902.843595191725,-54.96576967411566,-21.20483053141195,-22.006335878355312
7.682946,5.388761648605236,-403.59194781836726,1849.0000001298797,-6.314542798282525,1069.1037377090468,2011.0000008626437,1487.8398318663956,4675.312237367244,198.9665989009427,11938.466877499035,-53.93894490652312,-19.65947075334993,-22.371560280536407
7.683949,5.388417726359753,-402.0064254317673,1849.0000001299315,-6.1914760315541875,1070.2719557851856,2011.0000008622608,1488.0678046138446,4740.969598540396,209.07467544851272,11969.645577794101,-52.92459814378865,-18.067674597541156,-22.75535859567226
7.684949,5.388074378883451,-400.4050742093489,1849.0000001300607,-6.067588624589698,1071.44793859825,2011.000000861947,1488.2963866648813,4804.39113177579,219.26225347972976,11996.333278162972,-51.923376752986684,-16.430332744110117,-23.157522276674143
7.685948,5.387731611583395,-398.78894855874705,1849.000000130269,-5.94296469219786,1072.6309435404405,2011.0000008617005,1488.5254330102323,4865.465033659551,229.52051852746564,12018.490115413986,-50.93578941547587,-14.74850033279281,-23.57780242978476
7.686952,5.387389429843532,-397.1591048781896,1849.000000130559,-5.817688092748799,1073.8202298124645,2011.0000008615195,1488.754799872505,4924.082791079129,239.8397495017392,12036.082879358792,-49.96221063680721,-13.023401034082188,-24.015909364258963
7.687951,5.387047839024451,-395.5166005551539,1849.000000130933,-5.691842347669311,1075.0150590964554,2011.0000008614031,1488.9843448305887,4980.139421993603,250.20926767136416,12049.085079752851,-49.00288585920055,-11.256430256484123,-24.471512286056516
7.688955,5.386706844463153,-393.8624929722668,1849.0000001313922,-5.565510562474173,1076.214696220159,2011.0000008613513,1489.2139269406905,5033.533707663931,260.6173931781665,12057.476980070714,-48.05793711800419,-9.449157439337572,-24.944239137696123
7.689955,5.3863664514728296,-392.19783852170394,1849.0000001319388,-5.438775349418986,1077.4184098115857,2011.000000861363,1489.4434068539003,5084.168415996168,271.0514096671618,12061.245596673303,-47.12736918612499,-7.603327390911389,-25.43367658589516
7.690958,5.386026665342633,-390.52369162931893,1849.0000001325736,-5.311718751854627,1078.6254729433558,2011.0000008614377,1489.6726469301937,5131.950515671207,281.4975375281558,12060.384662364158,-46.211076153236334,-5.720860642391665,-25.9393701585972
7.691959,5.385687491337447,-388.8411037897066,1849.0000001332967,-5.184422170357958,1079.8351637659973,2011.000000861574,1489.9015113487796,5176.791380749076,291.9409161552539,12054.89455381979,-45.308848389693786,-3.803852799895857,-26.460824533398423
7.692963,5.3853489346976655,-387.151122613373,1849.000000134107,-5.05696629070817,1081.0467661294679,2011.0000008617715,1490.129866214721,5218.606985444718,302.3655955424979,12044.78218290475,-44.4203798488906,-1.854572888622664,-26.99750398009852
7.693959,5.3850110006389675,-385.45479088715337,1849.0000001350038,-4.929431013772982,1082.259570192203,2011.0000008620298,1490.3575796617513,5257.31808877606,312.75453744747557,12030.060852432493,-43.54527566627268,0.12453930474736566,-27.54883296094625
7.694962,5.384673694352095,-383.7531456489867,1849.000000135986,-4.8018953873638495,1083.4728730170118,2011.000000862348,1490.5845219512278,5292.850408785009,323.08962627085737,12010.750077495522,-42.68306001803512,2.13087687382812,-28.114196892882834
7.695961,5.38433702100263,-382.0472172781197,1849.0000001370538,-4.674437540114427,1084.68597915317,2011.0000008627264,1490.8105655671661,5325.134786028847,333.35168971856046,11986.87537404866,-41.83318420717511,4.1616703905803565,-28.692943076474773
7.696964,5.384000985730777,-380.33802860177843,1849.000000138207,-4.547134617431741,1085.8982012040894,2011.000000863164,1491.0355853073056,5354.1073360347345,343.5205292345632,11958.46801697364,-40.99503494845366,6.21399342298914,-29.284381796188327
7.697965,5.383665593651143,-378.6265940193071,1849.0000001394467,-4.4200627195648154,1087.1088603799762,2011.0000008636605,1491.2594583701668,5379.70959040511,353.5749601161994,11925.56477036717,-40.16794282642259,8.284768928845557,-29.887787596205207
7.698968,5.383330849852515,-376.91391864473576,1849.0000001407745,-4.293296841830971,1088.3172870349144,2011.0000008642153,1491.4820644380686,5401.888626258179,363.4928611500446,11888.207593264611,-39.351190901985106,10.370776477329777,-30.50240073506303
7.699966,5.382996759397653,-375.20099746869676,1849.0000001421915,-4.166910817035561,1089.522821187854,2011.0000008648274,1491.7032857560782,5420.597183686823,373.25123353536867,11846.443324424537,-38.54402344315587,12.46866024745737,-31.127428820921395
7.700969,5.382663327323069,-373.48881454056806,1849.0000001436977,-4.040977260116594,1090.7248130270057,2011.0000008654958,1491.9230072068726,5435.793770922511,382.8262687937606,11800.323350144237,-37.74565475489919,14.574937751838595,-31.762048627121548
7.701975,5.3823305586388175,-371.7783421716794,1849.000000145293,-3.9155675150414817,1091.9226233971738,2011.000000866219,1492.141116381499,5447.442756899485,392.19342529814446,11749.903259343271,-36.95527808127185,16.686009235447855,-32.40540808492952
7.702972,5.381998458328284,-370.0705401603736,1849.0000001469773,-3.7907516039791,1093.1156242695945,2011.0000008669956,1492.3575036460275,5455.514450929837,401.32751299214806,11695.242490333665,-36.172074550545126,18.798167702053465,-33.0566284471302
7.703971,5.381667031347975,-368.3663550396716,1849.0000001487508,-3.666598178766368,1094.3031991938685,2011.0000008678242,1492.5720622040944,5459.985169222715,410.2027858117892,11636.403973786148,-35.39522213046203,20.907609525262767,-33.71480661281561
7.704973,5.381336282627304,-366.66671934824734,1849.0000001506135,-3.543174474684737,1095.4847437316084,2011.0000008687027,1492.7846881553373,5460.837288011052,418.7930412659772,11573.453776399256,-34.62390455655705,23.010445606107048,-34.37901760054517
7.705975,5.38100621706838,-364.9725509253736,1849.0000001525661,-3.420546266558242,1096.6596658714545,2011.0000008696295,1492.995280549738,5458.05928308639,427.0717265809765,11506.460749682046,-33.85732019189026,25.10271304380288,-35.04831715417646
7.706977,5.380676839545813,-363.2847522304554,1849.0000001546089,-3.298777827181181,1097.827386425151,2011.0000008706027,1493.203741437886,5451.645755585823,435.01205076763813,11435.496188074296,-33.09469077182738,27.18038728987832,-35.72174446315644
7.707977,5.380348154906499,-361.60420968772553,1849.0000001567416,-3.1779318880799994,1098.9873394044025,2011.0000008716213,1493.4099759171795,5441.597443923643,442.5871019296396,11360.633500355345,-32.33526998293406,29.23939475778198,-36.398324976977754
7.708981,5.380020167969426,-359.9317930566282,1849.0000001589635,-3.058069602610602,1100.1389723782665,2011.0000008726845,1493.6138921739919,5427.921221812626,449.7699690963938,11281.947897941738,-31.578351821080776,31.275625860661126,-37.0770732918877
7.709981,5.379692883525467,-358.268354828372,1849.0000001612736,-2.9392505113890466,1101.2817468108733,2011.0000008737914,1493.8154015218345,5410.630082374527,456.53386783515447,11199.516103254504,-30.82327867072354,33.284948449909564,-37.7569960869022
7.710988,5.379366306337185,-356.6147296490898,1849.000000163672,-2.8215325100504645,1102.4151383792912,2011.0000008749419,1494.0144184355509,5389.743108394554,462.8522688721295,11113.416080861058,-30.069449045011588,35.26322162692321,-38.43709508583863
7.711985,5.3790404411386294,-354.97173376999297,1849.0000001661585,-2.704971819328015,1103.5386372713915,2011.0000008761351,1494.2108605815815,5365.285428828873,468.69902893121963,11023.72679357794,-29.316324924688235,37.20630990032761,-39.11637002244927
7.712985,5.378715292635144,-353.34016452486657,1849.0000001687324,-2.5896229574407843,1104.6517484635933,2011.0000008773702,1494.404648844341,5337.288161726254,474.0485229809753,10930.527985173223,-28.563438632613376,39.11009766030539,-39.793821586692
7.713987,5.378390865503169,-351.7207998352042,1849.0000001713918,-2.4755387147767554,1105.7539919784012,2011.0000008786453,1494.5957073487546,5305.788343773838,478.87577706583346,10833.89999074637,-27.810399180413818,40.97050393990515,-40.46845433155767
7.71499,5.378067164390036,-350.1143977432377,1849.0000001741348,-2.362770130854276,1106.8449031216837,2011.0000008799568,1494.783963479009,5270.828846721896,483.1566008872899,10733.923575303232,-27.05689802464273,42.78349742997435,-41.13927952159267
7.715989,5.377744193913775,-348.52169597307085,1849.0000001769588,-2.251366473542904,1107.9240326996685,2011.000000881302,1494.9693478935665,5232.45828098276,486.8677192950138,10630.679800499356,-26.30271417218497,44.5451117097394,-41.80531790625089
7.716991,5.3774219586629215,-346.9434115200836,1849.000000179861,-2.141375220522029,1108.9909472156685,2011.000000882679,1495.1517945365056,5190.730886734112,489.9869018473893,10524.249919009084,-25.547718578643604,46.2514606495047,-42.46560240334206
7.717993,5.377100463196335,-345.3802402687276,1849.0000001828387,-2.032842042953336,1110.0452290465828,2011.000000884085,1495.3312406452433,5145.706412886034,492.49308960568106,10414.715295503547,-24.791877788849924,47.898753935889694,-43.119180679978776
7.718995,5.376779712043002,-343.83285663878974,1849.0000001858891,-1.9258107913409213,1111.0864765992499,2011.0000008855175,1495.5076267547097,5097.449984294302,494.3665183358935,10302.15735279766,-24.035256774958714,49.48331266363048,-43.76511762054608
7.719999,5.376459709701853,-342.30191326015535,1849.0000001890096,-1.820323483550735,1112.1143044467603,2011.0000008869736,1495.6808966980393,5046.031957619447,495.5888373073577,10186.657541362907,-23.278020934691273,51.00158493122124,-44.402497673320944
7.720997,5.376140460641577,-340.7880406760612,1849.0000001921965,-1.7164202949589842,1113.128343444866,2011.0000008884497,1495.8509976038488,4991.527766242675,496.1432228971932,10068.297330105093,-22.520437220318946,52.45016137059621,-45.03042706936739
7.721997,5.375821969300436,-339.29184707478385,1849.000000195446,-1.6141395506972103,1114.1282408286459,2011.0000008899422,1496.017879890174,4934.017754656767,496.01448623526534,9947.158216078033,-21.762874377995505,53.82579053377509,-45.64803590908397
7.722999,5.375504240086083,-337.8139180496675,1849.0000001987548,-1.5135177199599155,1115.1136602896265,2011.0000008914483,1496.181497255141,4873.587002753741,495.1891741554358,9823.321750647345,-21.005802287035017,55.12539405204471,-46.25448011315435
7.723998,5.37518727737538,-336.3548163873535,1849.000000202119,-1.414589412338886,1116.084282033573,2011.0000008929653,1496.3418066644474,4810.32514043281,493.65566275599207,9696.869579532548,-20.24979039931657,56.34608147601831,-46.848943235623366
7.725002,5.3748710855142185,-334.91508188403367,1849.0000002055351,-1.3173873761467287,1117.0398028191935,2011.0000008944896,1496.4987683357358,4744.326152952974,491.40424291514216,9567.883494138114,-19.495505289436174,57.4851646980878,-47.430638137487776
7.726003,5.374555668817346,-333.4952311895112,1849.0000002089985,-1.221942498690605,1117.9799359780318,2011.0000008960167,1496.6523457199366,4675.688177455598,488.4271971560798,9436.445491630617,-18.743707336199787,58.54017185268268,-47.99880851966084
7.727005,5.374241031568191,-332.0957576788139,1849.0000002125037,-1.1282838084557025,1118.904411415833,2011.0000008975428,1496.8025054796656,4604.513291083924,484.71886730985665,9302.637841323136,-17.995246565591707,59.50886058464626,-48.55273031453602
7.728005,5.373927178018683,-330.7171313510703,1849.0000002160452,-1.0364384791566477,1119.8129755957032,2011.0000008990653,1496.9492174647598,4530.907291129182,480.2757124825435,9166.543155081516,-17.25105769421041,60.38923057215274,-49.09171293578514
7.729011,5.37361411238908,-329.35979875531984,1849.0000002196186,-0.9464318356138007,1120.705391503397,2011.0000009005814,1497.0924546850383,4454.979467637102,475.09635689536105,9028.244459660704,-16.512154420206997,61.17953518815571,-49.61510038664469
7.730008,5.373301838867804,-328.02418294290004,1849.0000002232193,-0.8582873614102208,1121.581438595092,2011.0000009020894,1497.2321932803725,4376.842368914656,469.18162723224054,8887.825269103083,-15.77962301615902,61.8782921837358,-50.12227222789942
7.73101,5.372990361611264,-326.7106834460165,1849.0000002268428,-0.772026708284011,1122.4409127280271,2011.0000009035873,1497.368412488155,4296.611560385339,462.534579198554,8745.369655574024,-15.05461528486828,62.48429327825632,-50.612644408133825
7.73201,5.372679684743692,-325.4196762820737,1849.0000002304853,-0.6876697072097709,1123.2836260744016,2011.0000009050743,1497.5010946082593,4214.405377252594,455.16051306774875,8600.962317262765,-14.33834094438201,62.996612544977154,-51.085669960515155
7.733011,5.372369812356978,-324.1515139833127,1849.0000002341433,-0.6052343811219795,1124.1094070189504,2011.0000009065495,1497.630224965575,4130.344671445435,447.0669780695743,8454.688642229437,-13.63205951252709,63.414613486311254,-51.54083957222262
7.734012,5.372060748510504,-322.90652565127533,1849.0000002378122,-0.5247369592323186,1124.9181000406197,2011.000000908012,1497.7557918702123,4044.5525533378363,438.2637655542969,8306.63476732319,-12.937071763942606,63.73795469961553,-51.977682034591425
7.735015,5.371752497230982,-321.6850170355844,1849.0000002414874,-0.4461918928922104,1125.7095655787916,2011.00000090946,1497.877786575467,3957.1541287540504,428.76289095065647,8156.88763152431,-12.254710834068495,63.96659404199515,-52.39576458414736
7.736014,5.371445062512297,-320.48727063650864,1849.0000002451645,-0.3696118729511871,1126.4836798845106,2011.0000009108924,1497.9962032336387,3868.276231795814,418.5785646194346,8005.535023269269,-11.586333045086347,64.10079121143927,-52.794693146877265
