time,altitude,rc_ele,rc_thr,rc_rud,tx_ele,tx_thr,tx_rud,acc_X,acc_Y,acc_Z,gyro_pitch,gyro_roll,gyro_yaw
29.000273,1.78,-475,1849,-267,1006,2011,1126,4166,1088,12154,42.48170303868866,-38.85246465448415,-43.12614369881829
29.001273,1.78,-477,1849,-275,1006,2011,1126,4307,1055,12062,40.91366579037099,-37.35139703401745,-43.0377302401749
29.002275,1.78,-480,1849,-283,1006,2011,1126,4438,1007,11982,39.36031083856468,-35.82576349836172,-42.95606376538245
29.003274,1.78,-482,1849,-289,1006,2011,1126,4565,946,11919,37.82409384764065,-34.276768377741284,-42.881747095968635
29.004277,1.78,-483,1849,-295,1006,2011,1126,4684,870,11881,36.30744366723207,-32.70564947738413,-42.81538121690015
29.005279,1.78,-485,1849,-300,1006,2011,1126,4791,782,11882,34.812756493165566,-31.113675170297316,-42.75756316396392
29.00628,1.78,-486,1849,-304,1006,2011,1126,4893,687,11925,33.34239014726002,-29.502141539256833,-42.70888391406936
29.00728,1.78,-487,1849,-307,1006,2011,1126,4990,595,12006,31.898658484919203,-27.872369589404624,-42.66992629316307
29.008286,1.78,-488,1849,-311,1005,2011,1100,5081,511,12123,30.48382594220202,-26.225702553840573,-42.641262916049996
29.009284,1.78,-489,1849,-316,1005,2011,1100,5173,442,12275,29.10010223621728,-24.56350331367606,-42.62345417113113
29.010286,1.78,-489,1849,-321,1005,2011,1100,5267,386,12454,27.749637234735822,-22.88715195103814,-42.61704626120351
29.011286,1.78,-490,1849,-326,1005,2011,1100,5351,337,12654,26.43451601338594,-21.19804344918197,-42.62256930940356
29.012288,1.78,-490,1849,-331,1005,2011,1100,5424,291,12871,25.156754121608486,-19.49758554919987,-42.640535537363625
29.013289,1.78,-490,1849,-335,1005,2011,1100,5489,249,13094,23.91829308109095,-17.787196768525277,-42.671437520839916
29.014294,1.78,-491,1849,-338,1005,2011,1100,5543,212,13312,22.720996141908643,-16.068304582766338,-42.71574652654284
29.015292,1.78,-491,1849,-340,1005,2011,1100,5591,185,13517,21.566644321406244,-14.342343769214049,-42.77391093267036
29.016294,1.78,-491,1849,-342,1005,2011,1100,5640,170,13699,20.45693274876755,-12.610754907346763,-42.846354734722716
29.017298,1.78,-491,1849,-345,1005,2011,1088,5684,167,13849,19.393467334593073,-10.874983028677565,-42.933476137607656
29.018298,1.78,-491,1849,-348,1005,2011,1088,5727,172,13963,18.377761780214332,-9.136476405428766,-43.035646234797234
29.019299,1.78,-491,1849,-351,1005,2011,1088,5777,183,14028,17.411234936566174,-7.396685464837561,-43.15320777523468
29.020301,1.78,-491,1849,-354,1005,2011,1088,5830,196,14039,16.495208517639973,-5.657061813527788,-43.286474018642814
29.021301,1.78,-491,1849,-356,1005,2011,1088,5881,208,13990,15.630905168809576,-3.919057354470192,-43.435727679678315
29.022304,1.78,-491,1849,-358,1005,2011,1088,5936,218,13873,14.819446885560005,-2.1841234775813083,-43.601219960885985
29.023303,1.78,-491,1849,-360,1005,2011,1088,5991,227,13688,14.061853773570848,-0.4537103039278412,-43.78316967364688
29.024305,1.78,-491,1849,-362,1005,2011,1088,6040,233,13439,13.35904313697739,1.2707340371145939,-43.98176244541677
29.025304,1.78,-491,1849,-363,1005,2011,1088,6087,238,13129,12.711828878133437,2.9877641184318966,-44.197150010731434
29.026312,1.78,-490,1849,-363,1025,2011,1088,6132,246,12759,12.120921189486932,4.695937933409036,-44.42944958295585
29.027307,1.87,-486,1849,-364,1025,2011,1088,6171,255,12337,11.58692651622552,6.393817639990492,-44.678743303675404
29.028309,1.87,-482,1849,-364,1025,2011,1088,6204,262,11872,11.1103477670248,8.079970345898197,-44.94507776682101
29.029309,1.87,-478,1849,-365,1025,2011,1088,6228,269,11371,10.691584749519816,9.752968946858095,-45.228463614815
29.030312,1.87,-474,1849,-365,1025,2011,1088,6244,277,10848,10.330934806939034,11.41139302603086,-45.52887520402359
29.031312,1.87,-470,1849,-365,1025,2011,1088,6259,287,10311,10.02859363257613,13.053829819437551,-45.846250336580916
29.032314,1.87,-467,1849,-365,1025,2011,1088,6269,301,9772,9.784656239644299,14.678875249255032,-46.180490055357026
29.033316,1.87,-465,1849,-365,1025,2011,1088,6272,311,9241,9.599118065987339,16.28513502429582,-46.53145849869619
29.034319,1.87,-463,1849,-365,1025,2011,1088,6273,316,8731,9.471876196332847,17.871225804411516,-46.89898281171843
29.035322,1.87,-461,1849,-365,1040,2011,1088,6269,314,8249,9.402730689101343,19.435776422846367,-47.28285311147193
29.036319,1.87,-457,1849,-365,1040,2011,1088,6259,307,7807,9.39138599970091,20.977429158180513,-47.6828225038562
29.037319,1.87,-453,1849,-365,1040,2011,1088,6244,303,7412,9.43745249722272,22.494841046344877,-48.09860715074479
29.038322,1.87,-450,1849,-365,1040,2011,1088,6223,306,7070,9.540448076377372,23.986685224052046,-48.52988638600667
29.039323,1.87,-446,1849,-365,1040,2011,1088,6192,317,6789,9.699799871411528,25.451652298008334,-48.97630287921107
29.040325,1.87,-444,1849,-365,1040,2011,1088,6151,333,6573,9.914846083621093,26.88845173883677,-49.437462845827866
29.041325,1.87,-441,1849,-365,1040,2011,1088,6101,349,6424,10.18483793897042,28.295813303652334,-49.91293630286136
29.042329,1.87,-440,1849,-365,1040,2011,1088,6042,359,6345,10.508941797039308,29.67248849554743,-50.402257369169305
29.043329,1.87,-438,1849,-365,1040,2011,1088,5973,361,6333,10.88624143652912,31.017252071182888,-50.904924610216234
29.044335,1.87,-436,1849,-365,1056,2011,1095,5892,356,6380,11.31574054550545,32.32890360927626,-51.420401427690635
29.045332,1.87,-433,1849,-364,1056,2011,1095,5803,348,6478,11.796365446299415,33.606269153618385,-51.94811649531791
29.046333,1.87,-429,1849,-363,1056,2011,1095,5713,340,6624,12.32696808529989,34.84820294501791,-52.487464243317895
29.047334,1.87,-425,1849,-361,1056,2011,1095,5618,335,6810,12.906329316539695,36.05358925761914,-53.037805395192215
29.048335,1.87,-422,1849,-360,1056,2011,1095,5518,335,7028,13.533162505064846,37.221344356215766,-53.5984675617403
29.049334,1.87,-419,1849,-359,1056,2011,1095,5423,337,7267,14.206117471868529,38.3504185920126,-54.168745898281706
29.050339,1.87,-417,1849,-358,1056,2011,1095,5331,341,7513,14.923784796989164,39.43979865411451,-54.747903831943866
29.051337,1.87,-415,1849,-357,1056,2011,1095,5237,342,7755,15.68470049128031,40.48850999225023,-55.33517386646762
29.05234,1.87,-414,1849,-357,1056,2011,1095,5144,340,7981,16.487351040351257,41.49561942273023,-55.92975847225271
29.053344,1.87,-411,1849,-357,1081,2011,1095,5050,337,8180,17.330178816572733,42.46023792475421,-56.5308310694683
29.054343,1.87,-407,1849,-356,1081,2011,1095,4950,335,8346,18.21158784728337,43.38152362837642,-57.137537112225694
29.055342,1.87,-402,1849,-356,1081,2011,1095,4846,337,8475,19.129949919664703,44.25868498897407,-57.74899528217264
29.056343,1.87,-396,1849,-356,1081,2011,1095,4740,341,8558,20.083610995275706,45.09098413600027,-58.36429880038702
29.057344,1.87,-392,1849,-356,1081,2011,1095,4629,347,8593,21.070897899864487,45.877740376052714,-58.98251686691607
29.058346,1.87,-388,1849,-356,1081,2011,1095,4518,355,8575,22.090125246685073,46.61833382183378,-59.60269623746118
29.059347,1.87,-384,1849,-356,1081,2011,1095,4410,366,8503,23.1396025443565,47.31220910958451,-60.22386294644961
29.060348,1.87,-382,1849,-356,1081,2011,1095,4308,376,8378,24.217641433705726,47.95887915832854,-60.84502418516294
29.061349,1.87,-380,1849,-356,1081,2011,1095,4216,381,8206,25.322562992389308,48.55792891514851,-61.46517034280126
29.062355,1.87,-376,1849,-356,1110,2011,1095,4135,379,7993,26.452705041760247,49.109019022095694,-62.083277217299056
29.063351,1.87,-371,1849,-356,1110,2011,1095,4058,370,7750,27.6064293875381,49.61188933234076,-62.698308401201544
29.064354,1.87,-365,1849,-356,1110,2011,1095,3977,361,7482,28.78212892406273,50.06636219588858,-63.30921784583788
29.065354,1.87,-359,1849,-356,1110,2011,1095,3885,354,7195,29.978234531084354,50.47234542898911,-63.91495260444068
29.066357,1.87,-354,1849,-356,1110,2011,1095,3781,351,6893,31.193221692366187,50.82983487691957,-64.5144557518752
29.067356,1.87,-349,1849,-356,1110,2011,1095,3669,353,6577,32.42561676724619,51.138916477601114,-65.10666947527902
29.068357,1.87,-346,1849,-356,1110,2011,1095,3554,356,6252,33.674002850004136,51.39976773373223,-65.6905383261064
29.06936,1.87,-343,1849,-356,1110,2011,1095,3438,360,5926,34.93702515721783,51.6126585038542,-66.26501261981615
29.070361,1.87,-341,1849,-356,1110,2011,1095,3318,367,5605,36.21339588962363,51.77795102830414,-66.82905196493189
29.071365,1.87,-336,1849,-356,1150,2011,1095,3192,378,5295,37.50189852168251,51.89609911476948,-67.38162889881838
29.072363,1.87,-330,1849,-356,1150,2011,1095,3063,396,4998,38.80139147880735,51.96764642020914,-67.92173260360059
29.073364,1.87,-323,1849,-356,1150,2011,1095,2936,422,4723,40.11081116911816,51.993223780807256,-68.44837267233191
29.074365,1.87,-316,1849,-356,1150,2011,1095,2813,456,4477,41.429174343818175,51.97354555871814,-68.96058289272048
29.075363,1.87,-309,1849,-356,1150,2011,1095,2693,496,4268,42.75557976769224,51.90940499321476,-69.4574250134017
29.076366,1.87,-304,1849,-356,1150,2011,1095,2572,540,4096,44.08920918847552,51.801668564331585,-69.93799245602881
29.077367,1.87,-299,1849,-356,1150,2011,1095,2448,587,3961,45.42932760065701,51.65126939894607,-70.40141393558751
29.078369,1.87,-296,1849,-356,1150,2011,1095,2322,636,3856,46.77528280563484,51.45919977167269,-70.84685695149308
29.079372,1.87,-293,1849,-356,1150,2011,1095,2190,685,3772,48.12650427633767,51.22650277472171,-71.27353111320146
29.080376,1.87,-289,1849,-355,1184,2011,1102,2055,732,3702,49.482501340949256,50.95426325088221,-71.68069126616079
29.081372,1.87,-283,1849,-354,1184,2011,1102,1922,774,3640,50.842860707388155,50.643598101407065,-72.06764038685627
29.082375,1.87,-278,1849,-353,1184,2011,1102,1795,810,3584,52.207243357252835,50.295646095683054,-72.43373221937875
29.083374,1.87,-272,1849,-351,1184,2011,1102,1678,842,3535,53.57538084423409,49.91155732241823,-72.77837363020745
29.084377,1.87,-267,1849,-350,1184,2011,1102,1572,871,3495,54.94707103689095,49.49248243314093,-73.10102666242938
29.085378,1.87,-263,1849,-349,1184,2011,1102,1481,903,3466,56.32217334901677,49.039561838363404,-73.4012102750625
29.086381,1.87,-259,1849,-348,1184,2011,1102,1404,939,3452,57.70060350278804,48.55391502456882,-73.6785017572131
29.08738,1.87,-256,1849,-347,1184,2011,1102,1337,976,3453,59.08232787088584,48.036630165567274,-73.93253781035808
29.088384,1.87,-254,1849,-347,1184,2011,1102,1281,1011,3465,60.46735744428531,47.48875420400761,-74.1630152951604
29.089389,1.87,-253,1849,-347,1184,2011,1102,1232,1041,3482,61.85574147283952,46.911283577240475,-74.36969164207916
29.090387,1.87,-251,1849,-346,1184,2011,1102,1185,1063,3496,63.24756082645855,46.305155755570986,-74.55238492782549
29.091386,1.87,-251,1849,-346,1184,2011,1102,1138,1076,3495,64.64292112578484,45.6712417495591,-74.7109736225965
29.092389,1.87,-250,1849,-346,1184,2011,1102,1092,1077,3472,66.04194569271843,45.01033972627724,-74.84539601606767
29.09339,1.87,-250,1849,-346,1184,2011,1102,1046,1066,3422,67.4447683725449,44.32316985302197,-74.9556493333126
29.094391,1.87,-249,1849,-346,1184,2011,1102,1001,1046,3346,68.85152628017235,43.61037046224512,-75.04178855503106
29.095393,1.87,-249,1849,-346,1184,2011,1102,956,1019,3246,70.26235252264794,42.87249560484105,-75.10392495957178
29.096394,1.87,-249,1849,-346,1184,2011,1102,913,984,3132,71.67736894854816,42.11001403148363,-75.14222440716347
29.097394,1.87,-249,1849,-346,1184,2011,1102,874,940,3008,73.0966789720553,41.32330961414341,-75.15690538947769
29.098401,1.87,-249,1849,-347,1185,2011,1088,835,884,2875,74.5203605156816,40.51268319267358,-75.14823687010087
29.099398,1.87,-248,1849,-349,1185,2011,1088,793,814,2734,75.94845911099287,39.67835580474509,-75.11653594364446
29.100399,1.87,-248,1849,-351,1185,2011,1088,749,733,2582,77.38098119184178,38.82047323173493,-75.06216534308437
29.1014,1.87,-248,1849,-354,1185,2011,1088,710,643,2411,78.817887610081,37.93911176880323,-74.98553082649464
29.102401,1.87,-247,1849,-356,1185,2011,1088,682,551,2212,80.25908739977709,37.03428510489401,-74.8870784754764
29.1034,1.87,-247,1849,-358,1185,2011,1088,661,465,1980,81.70443181278937,36.10595217865148,-74.76729193799422
29.104402,1.87,-247,1849,-360,1185,2011,1088,643,391,1720,83.15370864656256,35.154025860501584,-74.62668964777957
29.105405,1.87,-247,1849,-362,1185,2011,1088,629,330,1444,84.60663688427842,34.17838230081642,-74.46582205086277
29.106406,1.87,-247,1849,-363,1185,2011,1088,619,277,1169,86.06286166770833,33.17887078025687,-74.28526886720867
29.107409,1.87,-247,1849,-363,1185,2011,1088,606,224,908,87.52194962330987,32.15532390110196,-74.08563641197823
29.108408,1.87,-247,1849,-364,1185,2011,1088,584,168,673,88.98338456142235,31.107567966091526,-73.86755499668247
29.109408,1.87,-247,1849,-364,1185,2011,1088,550,107,464,90.4465635665721,30.035433401452465,-73.63167642549281
29.11041,1.87,-247,1849,-365,1185,2011,1088,503,39,270,91.9107934945283,28.938765091034753,-73.37867159646319
29.111409,1.87,-247,1849,-365,1185,2011,1088,438,-37,82,93.37528788999064,27.817432497898523,-73.10922821196634
29.112412,1.87,-247,1849,-365,1185,2011,1088,357,-118,-101,94.8391643386189,26.671339458629184,-72.8240485980497
29.113412,1.87,-247,1849,-365,1185,2011,1088,268,-200,-276,96.30144226882608,25.500433544788965,-72.52384762939876
29.114415,1.87,-247,1849,-365,1185,2011,1088,181,-281,-440,97.76104122164162,24.304714895432358,-72.20935075540639
29.115413,1.87,-247,1849,-365,1185,2011,1088,96,-365,-584,99.21677960961219,23.084244434289488,-71.88129212313716
29.116421,1.87,-247,1849,-365,1185,2011,1088,17,-452,-696,100.66737398681224,21.839151394837838,-71.54041279406579
29.117418,1.87,-247,1849,-365,1185,2011,1088,-55,-544,-771,102.11143885096288,20.569640086043396,-71.18745905274325
29.11842,1.87,-247,1849,-365,1185,2011,1088,-120,-638,-808,103.5474869955482,19.275995841254463,-70.8231808066168
29.119421,1.96,-247,1849,-365,1185,2011,1088,-177,-730,-811,104.97393042531459,17.958590102971375,-70.44833007691916
29.120421,1.96,-247,1849,-365,1185,2011,1088,-226,-815,-790,106.38908184359025,16.617884607505633,-70.06365958082772
29.121423,1.96,-247,1849,-365,1185,2011,1088,-264,-889,-755,107.79115671539174,15.254434646137204,-69.6699214050568
29.122426,1.96,-247,1849,-365,1185,2011,1088,-292,-949,-718,109.17827590677598,13.868891392913067,-69.26786577072332
29.123425,1.96,-247,1849,-365,1185,2011,1088,-315,-995,-686,110.54846889833038,12.462003302784643,-68.85823988864101
29.12443,1.96,-247,1849,-365,1185,2011,1088,-339,-1028,-663,111.8996775686792,11.03461659638678,-68.44178690303119
29.125435,1.96,-247,1849,-365,1185,2011,1097,-364,-1046,-649,113.22976054180874,9.58767485895793,-68.01924491997256
29.126432,1.96,-247,1849,-364,1185,2011,1097,-394,-1050,-642,114.53649808933483,8.122217790864761,-67.59134611485928
29.127431,1.96,-247,1849,-362,1185,2011,1097,-426,-1043,-640,115.81759757522828,6.63937915630072,-67.15881591087856
29.128432,1.96,-247,1849,-360,1185,2011,1097,-459,-1025,-642,117.07069942590327,5.140383984992654,-66.72237221835098
29.129434,1.96,-247,1849,-359,1185,2011,1097,-490,-994,-650,118.29338360323887,3.6265450886243333,-66.28272472308976
29.130437,1.96,-247,1849,-358,1185,2011,1097,-514,-955,-664,119.48317655259048,2.099258958391258,-65.84057421106499
29.131436,1.96,-247,1849,-357,1185,2011,1097,-526,-912,-688,120.63755859271735,0.560001112122223,-65.39661191671807
29.132438,1.96,-247,1849,-356,1185,2011,1097,-528,-871,-727,121.75397171026164,-0.989679041373292,-64.95151888314834
29.133438,1.96,-247,1849,-355,1185,2011,1097,-518,-838,-782,122.82982771812891,-2.548163756452044,-64.50596532390335
29.134455,1.96,-245,1849,-354,1203,2011,1108,-502,-812,-854,123.86251673472384,-4.113772864449988,-64.06060997813364
29.13545,1.96,-243,1849,-352,1203,2011,1108,-488,-793,-943,124.84941593924943,-5.684769994967458,-63.616099453344
29.136452,1.96,-241,1849,-350,1203,2011,1108,-479,-780,-1048,125.78789855696287,-7.259369059202006,-63.173067552738004
29.137453,1.96,-239,1849,-347,1203,2011,1108,-476,-768,-1174,126.67534302747988,-8.835740955963379,-62.73213458699963
29.138455,1.96,-236,1849,-345,1203,2011,1108,-476,-759,-1321,127.50914230931411,-10.412020465925988,-62.293906673071795
29.139455,1.96,-234,1849,-343,1203,2011,1108,-480,-754,-1487,128.2867132750219,-11.986313303292011,-61.85897502487541
29.140455,1.96,-233,1849,-342,1203,2011,1108,-488,-755,-1668,129.00550615339364,-13.556703296203722,-61.42791524278591
29.141458,1.96,-231,1849,-341,1203,2011,1108,-497,-766,-1857,129.66301397764542,-15.121259667788783,-61.001286609887565
29.14246,1.96,-230,1849,-340,1203,2011,1108,-505,-784,-2045,130.256782000938,-16.678044388544574,-60.57963140347018
29.143462,1.96,-230,1849,-339,1203,2011,1108,-511,-803,-2223,130.78441704233944,-18.225119567961535,-60.16347422995972
29.144466,1.96,-228,1849,-338,1223,2011,1121,-517,-823,-2385,131.24359672749944,-19.76055484933266,-59.75332139063967
29.145462,1.96,-225,1849,-336,1223,2011,1121,-523,-844,-2529,131.6320785891707,-21.282434767578714,-59.34966028432409
29.146465,1.96,-222,1849,-333,1223,2011,1121,-530,-871,-2652,131.94770899379228,-22.788866026955265,-58.952958851778455
29.147464,1.96,-220,1849,-331,1223,2011,1121,-536,-905,-2758,132.18843186197043,-24.277984654738233,-58.56366506531155
29.148466,1.96,-217,1849,-329,1223,2011,1121,-545,-942,-2848,132.3522971529883,-25.747962988456194,-58.18220646570882
29.149466,1.96,-215,1849,-327,1223,2011,1121,-554,-976,-2924,132.43746908647896,-27.197016457006768,-57.808989747587106
29.150472,1.96,-213,1849,-325,1223,2011,1121,-561,-1004,-2988,132.4422340779589,-28.62341011895451,-57.444400393247214
29.151471,1.96,-212,1849,-324,1223,2011,1121,-564,-1025,-3039,132.36500836865918,-30.02546492397985,-57.088802354085544
29.152474,1.96,-210,1849,-323,1223,2011,1121,-564,-1043,-3076,132.20434533354455,-31.40156366602856,-56.7425377775689
29.153479,1.96,-208,1849,-321,1251,2011,1144,-561,-1061,-3098,131.95894245416503,-32.75015659952377,-56.405926776733054
29.154477,1.96,-205,1849,-317,1251,2011,1144,-553,-1081,-3105,131.6276479447902,-34.06976669305887,-56.07926723824268
29.155476,1.96,-201,1849,-313,1251,2011,1144,-537,-1099,-3099,131.20946702112386,-35.35899449800567,-55.76283466434315
29.156477,1.96,-197,1849,-309,1251,2011,1144,-510,-1114,-3083,130.70356780099766,-36.616522612082775,-55.456882043588024
29.157478,1.96,-194,1849,-306,1251,2011,1144,-475,-1117,-3059,130.10928682616446,-37.84111971985128,-55.16163974505535
29.15848,1.96,-191,1849,-303,1251,2011,1144,-429,-1107,-3031,129.4261341939506,-39.03164419321313,-54.8773154308622
29.159483,1.96,-189,1849,-300,1251,2011,1144,-372,-1081,-3001,128.65379828716044,-40.18704723533977,-54.60409398213288
29.160482,1.96,-187,1849,-298,1251,2011,1144,-308,-1043,-2970,127.79215009025658,-41.30637555134395,-54.342137434192416
29.161482,1.96,-185,1849,-297,1251,2011,1144,-239,-996,-2938,126.841247079501,-42.38877352889692,-54.091584917667916
29.16249,1.96,-183,1849,-294,1280,2011,1168,-168,-940,-2906,125.80133667449526,-43.433484912300145,-53.85255260335972
29.163485,1.96,-179,1849,-290,1280,2011,1168,-92,-881,-2876,124.67285923848681,-44.439853954455245,-53.625133650114776
29.164488,1.96,-175,1849,-286,1280,2011,1168,-13,-819,-2848,123.45645061495763,-45.407326032763955,-53.409398156398176
29.16549,1.96,-172,1849,-282,1280,2011,1168,70,-753,-2822,122.15294418836486,-46.335447717125454,-53.205393117723474
29.166492,1.96,-168,1849,-279,1280,2011,1168,153,-681,-2799,120.76337245746048,-47.223866280770906,-53.01314239350558
29.167491,1.96,-165,1849,-276,1280,2011,1168,236,-602,-2776,119.28896811039685,-48.07232864762748,-52.83264668820339
29.168493,1.96,-163,1849,-273,1280,2011,1168,319,-517,-2753,117.7311645918959,-48.88067977313646,-52.66388355278656
29.169495,1.96,-161,1849,-271,1280,2011,1168,402,-429,-2731,116.09159615422578,-49.648860458889565,-52.50680741352148
29.170498,1.96,-159,1849,-270,1280,2011,1168,485,-342,-2708,114.37209738556395,-50.37690460524634,-52.36134963569676
29.171503,1.96,-157,1849,-267,1301,2011,1191,567,-259,-2682,112.57470221134326,-51.06493591055014,-52.227418630089474
29.1725,1.96,-155,1849,-264,1301,2011,1191,647,-183,-2649,110.70164236618403,-51.71316403084907,-52.10490000972207
29.173502,1.96,-152,1849,-260,1301,2011,1191,725,-115,-2611,108.75534533590795,-52.321880220060514,-51.99365680391238
29.174502,1.96,-149,1849,-256,1301,2011,1191,799,-53,-2565,106.73843177091138,-52.891452477000485,-51.89352973593163
29.175503,1.96,-147,1849,-253,1301,2011,1191,874,5,-2514,104.65371237390737,-53.422320232332154,-51.80433756983953
29.176505,1.96,-144,1849,-250,1301,2011,1191,946,59,-2456,102.50418426672498,-53.9149886150302,-51.725877531246546
29.177506,1.96,-143,1849,-248,1301,2011,1191,1012,113,-2392,100.29302684238881,-54.3700223441265,-51.657925805828526
29.17851,1.96,-141,1849,-246,1301,2011,1191,1070,166,-2323,98.02359711002893,-54.7880392970205,-51.60023811839187
29.179509,1.96,-140,1849,-244,1301,2011,1191,1120,214,-2249,95.69942454131262,-55.169703810299694,-51.55255039415858
29.180514,1.96,-139,1849,-242,1315,2011,1207,1163,257,-2171,93.32420542809797,-55.51571977267976,-51.51457950268678
29.181509,1.96,-137,1849,-240,1315,2011,1207,1202,293,-2093,90.90179676185444,-55.82682357232792,-51.48602408347761
29.182513,1.96,-135,1849,-237,1315,2011,1207,1236,320,-2016,88.43620964598392,-56.10377696261356,-51.46656545090976
29.183512,1.96,-134,1849,-234,1315,2011,1207,1260,339,-1941,85.93160225243616,-56.347359911400176,-51.45586857478362
29.184515,1.96,-132,1849,-232,1315,2011,1207,1281,353,-1868,83.39227233394436,-56.55836349948739,-51.45358313154962
29.185515,1.96,-131,1849,-230,1315,2011,1207,1303,363,-1802,80.82264930282211,-56.73758293374986,-51.459344620290125
29.186518,1.96,-130,1849,-228,1315,2011,1207,1318,371,-1740,78.22728588653672,-56.885810739677126,-51.47277553666143
29.187518,1.96,-129,1849,-227,1315,2011,1207,1323,375,-1676,75.61084936934171,-57.00383019610365,-51.49348659722367
29.188521,1.96,-128,1849,-226,1315,2011,1207,1320,373,-1610,72.97811242856663,-57.09240907194263,-51.5210780059552
29.189527,1.96,-127,1849,-225,1323,2011,1215,1309,364,-1544,70.33394357402271,-57.152293721109054,-51.555140754354845
29.190525,1.96,-126,1849,-224,1323,2011,1215,1291,348,-1480,67.68329719915677,-57.1842035880944,-51.595257946367056
29.191524,1.96,-125,1849,-222,1323,2011,1215,1267,325,-1416,65.03120325275835,-57.18882617322296,-51.64100613934855
29.192526,1.96,-124,1849,-221,1323,2011,1215,1241,299,-1354,62.382756540149465,-57.16681250349089,-51.69195669234962
29.193525,1.96,-123,1849,-220,1323,2011,1215,1215,274,-1295,59.743105662890876,-57.118773151652164,-51.74767711301832
29.194529,1.96,-122,1849,-219,1323,2011,1215,1186,251,-1243,57.117441606106254,-57.0452748421378,-51.807732394383045
29.19553,1.96,-122,1849,-218,1323,2011,1215,1152,236,-1200,54.51098598256786,-56.94683767677369,-51.87168633261236
29.196533,1.96,-121,1849,-217,1323,2011,1215,1109,229,-1163,51.928978942793535,-56.82393300578083,-51.93910281666784
29.197534,1.96,-121,1849,-217,1323,2011,1215,1054,227,-1128,49.3766667608293,-56.67698196038041,-52.009547080728446
29.198541,1.96,-120,1849,-216,1323,2011,1215,990,226,-1088,46.85928910642697,-56.50635465311222,-52.08258691055688
29.199538,1.96,-120,1849,-216,1323,2011,1215,923,224,-1042,44.382066015972796,-56.31237004169436,-52.15779379570159
29.200538,1.96,-120,1849,-216,1323,2011,1215,863,217,-987,41.950184576376266,-56.09529644305487,-52.23474402057505
29.201539,1.96,-120,1849,-216,1323,2011,1215,816,202,-925,39.56878533770293,-55.85535267703032,-52.31301968893214
29.202542,1.96,-120,1849,-216,1323,2011,1215,781,181,-860,37.24294847156147,-55.592709814641445,-52.39220967795956
29.203541,1.96,-120,1849,-216,1323,2011,1215,757,158,-792,34.97767969356282,-55.30749350365424,-52.471910519974834
29.204545,1.96,-120,1849,-216,1323,2011,1215,745,143,-719,32.77789597013731,-54.999786843488565,-52.551727211623195
29.205546,1.96,-120,1849,-216,1323,2011,1215,746,139,-638,30.648411032947195,-54.669633781147866,-52.63127395247096
29.206548,1.96,-120,1849,-216,1323,2011,1215,761,141,-538,28.593920727900414,-54.31704299840362,-52.710174816806365
29.207552,1.96,-120,1849,-216,1313,2011,1201,785,145,-412,26.61898822992785,-53.941992257191366,-52.78806436374905
29.20855,1.96,-121,1849,-218,1313,2011,1201,808,144,-256,24.728029159088276,-53.54443316510912,-52.8645881909223
29.209551,1.96,-122,1849,-220,1313,2011,1201,828,138,-71,22.92529663853382,-53.12429631675888,-52.93940343591462
29.210553,1.96,-123,1849,-221,1313,2011,1201,840,124,141,21.214866340940006,-52.68149676025267,-53.012179228101886
29.211553,2.05,-124,1849,-223,1313,2011,1201,843,101,377,19.6006215775848,-52.21593973201465,-53.082597091875165
29.212554,2.05,-125,1849,-225,1313,2011,1201,836,70,636,18.086238493185924,-51.72752659726803,-53.15035130136804
29.213556,2.05,-125,1849,-226,1313,2011,1201,818,33,920,16.67517143887889,-51.21616092855218,-53.21514918641573
29.214558,2.05,-126,1849,-227,1313,2011,1201,793,-6,1236,15.370638603865125,-50.68175465079329,-53.27671138950066
29.215556,2.05,-126,1849,-227,1313,2011,1201,765,-48,1589,14.17560799210911,-50.124234179536394,-53.334772073618595
29.216564,2.05,-127,1849,-229,1298,2011,1178,731,-91,1980,13.092783833724269,-49.543546479390514,-53.38907908114503
29.217561,2.05,-129,1849,-232,1298,2011,1178,691,-134,2408,12.124593521827816,-48.93966497246858,-53.4393940437521
29.218562,2.05,-131,1849,-236,1298,2011,1178,646,-172,2860,11.273175165330107,-48.312595231112795,-53.48549244320439
29.219562,2.05,-132,1849,-239,1298,2011,1178,599,-204,3318,10.540365846800963,-47.66238039481841,-53.527163622591296
29.220565,2.05,-134,1849,-243,1298,2011,1178,552,-226,3771,9.927690672368183,-46.989106257354884,-53.56421074738933
29.221565,2.05,-135,1849,-245,1298,2011,1178,508,-242,4205,9.436352697481421,-46.29290597613032,-53.59645071570847
29.222567,2.05,-136,1849,-248,1298,2011,1178,468,-253,4615,9.067223808089388,-45.57396436167104,-53.62371401708202
29.223567,2.05,-137,1849,-249,1298,2011,1178,434,-258,4993,8.820836630973137,-44.832521710751,-53.64584453918936
29.224569,2.05,-138,1849,-251,1298,2011,1178,408,-254,5334,8.697377539361165,-44.068877152104626,-53.66269932208908
29.225574,2.05,-139,1849,-254,1276,2011,1146,393,-237,5638,8.696680810551767,-43.28339147828041,-53.67414826011029
29.226572,2.05,-142,1849,-258,1276,2011,1146,396,-203,5906,8.818223981569519,-42.476489440377215,-53.68007375268754
29.227571,2.05,-145,1849,-263,1276,2011,1146,417,-149,6141,9.061124437865569,-41.64866148386579,-53.68037030722559
29.228574,2.05,-147,1849,-269,1276,2011,1146,456,-86,6347,9.424137260002313,-40.800464903868196,-53.674944099486964
29.229575,2.05,-150,1849,-273,1276,2011,1146,514,-29,6527,9.905654345187408,-39.93252439818911,-53.66371249966279
29.230578,2.05,-152,1849,-277,1276,2011,1146,585,10,6677,10.503704814783946,-39.04553199737093,-53.64660357460214
29.231577,2.05,-154,1849,-281,1276,2011,1146,660,28,6792,11.215956715099793,-38.14024635422833,-53.62355557805219
29.232579,2.05,-155,1849,-283,1276,2011,1146,736,29,6868,12.039720016129658,-37.217491381229536,-53.594516441029455
29.233581,2.05,-157,1849,-285,1276,2011,1146,809,19,6905,12.97195091099922,-36.27815423248361,-53.55944327396719
29.234586,2.05,-159,1849,-289,1248,2011,1113,878,1,6913,14.0092574174011,-35.323182637335556,-53.51830189165055
29.235582,2.05,-162,1849,-294,1248,2011,1113,943,-21,6901,15.147906281074011,-34.353581604147465,-53.471066371523705
29.236585,2.05,-165,1849,-300,1248,2011,1113,997,-46,6888,16.38383117993711,-33.37040952545749,-53.41771865571087
29.237587,2.05,-169,1849,-306,1248,2011,1113,1043,-73,6888,17.712642225198145,-32.374773728950345,-53.35824820674268
29.238588,2.05,-172,1849,-311,1248,2011,1113,1089,-95,6909,19.129636752016804,-31.36782553165975,-53.292651726210295
29.239589,2.05,-175,1849,-316,1248,2011,1113,1137,-108,6951,20.629811387017355,-30.350754866301422,-53.22093294425477
29.240591,2.05,-177,1849,-319,1248,2011,1113,1191,-107,7020,22.20787537353719,-29.324784557473556,-53.14310248595828
29.24159,2.05,-179,1849,-322,1248,2011,1113,1252,-93,7120,23.858265128823227,-28.29116433107186,-53.05917781841251
29.242593,2.05,-180,1849,-324,1248,2011,1113,1314,-72,7253,25.575160001450403,-27.251164642734455,-52.96918327965841
29.243596,2.05,-182,1849,-329,1225,2011,1082,1372,-47,7420,27.352499192533653,-26.20607041101347,-52.8731501880685
29.244595,2.05,-185,1849,-334,1225,2011,1082,1428,-21,7618,29.183999800417876,-25.15717473890076,-52.77111702834537
29.245594,2.05,-188,1849,-341,1225,2011,1082,1476,5,7843,31.063175944447476,-24.105772703858076,-52.66312970832882
29.246596,2.05,-192,1849,-347,1225,2011,1082,1512,32,8089,32.98335891823532,-23.053155292085854,-52.549241879313726
29.247595,2.05,-195,1849,-353,1225,2011,1082,1541,67,8346,34.937718316399646,-22.000603547743765,-52.4295153116399
29.248597,2.05,-197,1849,-357,1225,2011,1082,1567,111,8601,36.91928407156892,-20.949383002288204,-52.30402031699644
29.2496,2.05,-199,1849,-361,1225,2011,1082,1591,165,8846,38.92096933117404,-19.90073844272286,-52.17283620909504
29.250602,2.05,-201,1849,-365,1225,2011,1082,1618,225,9076,40.93559409639757,-18.855889069819508,-52.03605179481298
29.251602,2.05,-202,1849,-367,1225,2011,1082,1647,284,9290,42.955909538558124,-17.816024087955004,-51.89376588828458
29.252608,2.05,-204,1849,-370,1210,2011,1062,1684,337,9491,44.97462290085476,-16.78229875739477,-51.746087840548725
29.253606,2.05,-206,1849,-375,1210,2011,1062,1732,382,9679,46.98442288546552,-15.755830928291607,-51.5931380771941
29.254607,2.05,-209,1849,-379,1210,2011,1062,1790,418,9853,48.97800541756427,-14.737698064170356,-51.43504863605658
29.255607,2.05,-211,1849,-384,1210,2011,1062,1859,448,10007,50.9480996694196,-13.72893475202371,-51.27196369656431
29.256609,2.05,-213,1849,-387,1210,2011,1062,1941,475,10134,52.88749422016692,-12.730530686916191,-51.10404009200938
29.257611,2.14,-215,1849,-391,1210,2011,1062,2035,502,10228,54.78906322087396,-11.743429111423836,-50.9314477960951
29.258612,2.14,-216,1849,-393,1210,2011,1062,2140,530,10287,56.645792430545505,-10.768525684214731,-50.754370375699565
29.259614,2.14,-217,1849,-396,1210,2011,1062,2253,557,10311,58.45080498671531,-9.806667747151149,-50.57300540286394
29.260614,2.14,-218,1849,-397,1210,2011,1062,2369,577,10307,60.19738677397424,-8.858653955931201,-50.387564820375005
29.261619,2.14,-219,1849,-399,1201,2011,1054,2486,586,10283,61.87901125478355,-7.925234235169107,-50.1982752567251
29.262617,2.14,-221,1849,-401,1201,2011,1054,2603,584,10247,63.4893636289319,-7.007110014984813,-50.00537828753668
29.263617,2.14,-222,1849,-403,1201,2011,1054,2721,569,10203,65.02236419097069,-6.104934703044696,-49.80913064174349
29.264618,2.14,-224,1849,-405,1201,2011,1054,2845,543,10161,66.47219075907527,-5.219314344077559,-49.609804352055804
29.265619,2.14,-225,1849,-407,1201,2011,1054,2975,506,10123,67.83330005436119,-4.350808418489842,-49.407686850619065
29.266622,2.14,-226,1849,-409,1201,2011,1054,3100,455,10098,69.10044791699829,-3.4999307329360567,-49.203081012216735
29.267622,2.14,-227,1849,-410,1201,2011,1054,3224,393,10089,70.2687082544478,-2.6671503585820155,-48.99630514852756
29.268625,2.14,-228,1849,-411,1201,2011,1054,3350,323,10095,71.33349062747406,-1.8528925771361058,-48.7876929574486
29.269626,2.14,-228,1849,-412,1201,2011,1054,3471,252,10117,72.29055639075898,-1.0575398000111986,-48.57759343115192
29.270633,2.14,-228,1849,-412,1201,2011,1054,3587,184,10159,73.13603331647161,-0.2814324314884762,-48.36637072539159
29.271629,2.14,-229,1849,-413,1201,2011,1054,3703,125,10220,73.86642864087965,0.4751303481011098,-48.15440399082064
29.272631,2.14,-229,1849,-413,1201,2011,1054,3814,75,10301,74.47864048616754,1.2118898984082844,-47.9420871649312
29.273632,2.14,-229,1849,-413,1201,2011,1054,3915,31,10406,74.96996762202973,1.9286275487432807,-47.729828720806545
29.274634,2.14,-229,1849,-413,1201,2011,1054,4010,-6,10531,75.33811754417805,2.6251641506125507,-47.51805136630151
29.275634,2.14,-229,1849,-413,1201,2011,1054,4099,-35,10672,75.58121285936308,3.301359756656232,-47.30719168477867
29.276635,2.14,-229,1849,-413,1201,2011,1054,4183,-51,10827,75.69779597835263,3.957113423732487,-47.09769970635365
29.277636,2.14,-229,1849,-413,1201,2011,1054,4264,-53,10990,75.68683212913349,4.59236313239737,-46.89003839697237
29.27864,2.14,-229,1849,-413,1201,2011,1054,4336,-39,11154,75.54771071234956,5.207085809939291,-46.68468305178691
29.279645,2.14,-229,1849,-413,1201,2011,1060,4398,-9,11315,75.28024502967673,5.801297439176361,-46.482120579349015
29.280642,2.14,-229,1849,-412,1201,2011,1060,4455,36,11461,74.88467042343369,6.375053230094481,-46.2828486641559
29.28164,2.14,-229,1849,-411,1201,2011,1060,4502,93,11580,74.36164087224093,6.928447825995202,-46.08737479708307
29.282644,2.14,-229,1849,-410,1201,2011,1060,4543,157,11664,73.7122240929875,7.461615510462681,-45.89621516612092
29.283644,2.14,-229,1849,-409,1201,2011,1060,4589,227,11706,72.93789520392548,7.974730376888836,-45.70989340336935
29.284647,2.14,-229,1849,-408,1201,2011,1060,4641,300,11697,72.04052900766625,8.468006419182228,-45.528939188175585
29.285648,2.14,-229,1849,-407,1201,2011,1060,4695,379,11635,71.02239095606548,8.941697500950951,-45.35388671030857
29.28665,2.14,-229,1849,-406,1201,2011,1060,4755,463,11516,69.88612686101365,9.39609716115091,-45.18527300084749
29.287648,2.14,-229,1849,-406,1201,2011,1060,4820,552,11339,68.63475141585059,9.83153821715676,-45.02363614184557
29.288654,2.14,-229,1849,-405,1210,2011,1068,4882,641,11108,67.27163559174595,10.24839213135696,-44.86951336869711
29.289651,2.14,-228,1849,-403,1210,2011,1068,4936,725,10824,65.80049297242752,10.647068114348619,-44.72343908133662
29.290653,2.14,-227,1849,-402,1210,2011,1068,4982,803,10481,64.22536508978135,11.028011946204895,-44.58594278180509
29.291652,2.14,-226,1849,-400,1210,2011,1068,5018,869,10080,62.55060582265582,11.391704506655607,-44.457546956287025
29.292655,2.14,-225,1849,-399,1210,2011,1068,5046,925,9620,60.78086492185904,11.738660014936729,-44.338764919575176
29.293655,2.14,-224,1849,-398,1210,2011,1068,5068,970,9105,58.92107072570118,12.069423990247696,-44.230098639322506
29.294659,2.14,-223,1849,-397,1210,2011,1068,5082,1003,8543,56.97641213205116,12.384570953996013,-44.132036556618225
29.295659,2.14,-222,1849,-396,1210,2011,1068,5089,1023,7951,54.95231989426006,12.68470190493891,-44.04505141846862
29.296661,2.14,-222,1849,-395,1210,2011,1068,5085,1025,7348,52.85444730931655,12.970441607224148,-43.96959813673768
29.297666,2.14,-221,1849,-394,1216,2011,1081,5069,1003,6748,50.68865036739246,13.242435738277164,-43.906111687057475
29.298664,2.14,-220,1849,-391,1216,2011,1081,5045,952,6164,48.46096743278521,13.50134794801248,-43.85500506013943
29.299665,2.14,-219,1849,-389,1216,2011,1081,5013,868,5599,46.1775985276548,13.747856883237466,-43.816667276756874
29.300666,2.14,-218,1849,-386,1216,2011,1081,4972,753,5051,43.84488429233617,13.982653231903395,-43.79146147642719
29.301666,2.14,-218,1849,-384,1216,2011,1081,4924,614,4522,41.46928469938605,14.20643684126919,-43.779723088633766
29.302669,2.14,-217,1849,-381,1216,2011,1081,4868,460,4017,39.05735760242841,14.419913961983376,-43.781758094538105
29.303668,2.23,-216,1849,-380,1216,2011,1081,4805,300,3549,36.615737204646024,14.623794666501787,-43.797841386733495
29.304673,2.23,-216,1849,-378,1216,2011,1081,4735,137,3124,34.15111253498199,14.818790485248995,-43.82821523466953
29.305671,2.23,-215,1849,-377,1216,2011,1081,4651,-33,2750,31.67020602256396,15.005612297471526,-43.87308786369935
29.306678,2.23,-214,1849,-375,1230,2011,1103,4553,-210,2433,29.17975226126803,15.184968505490254,-43.93263215595455
29.307675,2.23,-213,1849,-371,1230,2011,1103,4442,-388,2171,26.68647705631371,15.357563510870893,-44.006984481249184
29.308676,2.23,-211,1849,-367,1230,2011,1103,4322,-562,1959,24.19707684315312,15.524096499481645,-44.09624366594421
29.309677,2.23,-209,1849,-362,1230,2011,1103,4197,-725,1793,21.718198565900764,15.685260530675338,-44.20047010720696
29.310681,2.23,-207,1849,-358,1230,2011,1103,4071,-872,1665,19.256420098698833,15.84174191478763,-44.31968503938056
29.31168,2.23,-206,1849,-355,1230,2011,1103,3943,-1003,1569,16.81823128924441,15.994219852700738,-44.45386995821937
29.312682,2.23,-204,1849,-352,1230,2011,1103,3816,-1118,1500,14.410015699202091,16.143366300794636,-44.6029662075391
29.313682,2.23,-203,1849,-350,1230,2011,1103,3693,-1218,1449,12.038033110877754,16.289846014051165,-44.76687473140471
29.314686,2.23,-203,1849,-348,1230,2011,1103,3572,-1300,1415,9.70840286279289,16.43431671002789,-44.94545599342818
29.315689,2.23,-201,1849,-345,1251,2011,1131,3453,-1360,1395,7.427088068500286,16.577429287915635,-45.138530063202914
29.316688,2.23,-199,1849,-340,1251,2011,1131,3336,-1392,1384,5.199880763521223,16.719828030877206,-45.345876868502145
29.317689,2.23,-196,1849,-335,1251,2011,1131,3219,-1395,1378,3.032388015407907,16.862150716839885,-45.56723661068424
29.318692,2.23,-193,1849,-330,1251,2011,1131,3105,-1371,1371,0.930019022314954,17.005028562883016,-45.802310339734696
29.319694,2.23,-191,1849,-325,1251,2011,1131,2990,-1323,1356,-1.1020267834334048,17.14908593102321,-46.0507606844631
29.320695,2.23,-189,1849,-322,1251,2011,1131,2872,-1255,1327,-3.0587706183274244,17.294939728161832,-46.31221273256292
29.321697,2.23,-187,1849,-318,1251,2011,1131,2749,-1169,1280,-4.935464216161446,17.443198439839655,-46.58625505457792
29.3227,2.23,-185,1849,-316,1251,2011,1131,2621,-1068,1215,-6.727598688044224,17.5944607458864,-46.87244086530652
29.3237,2.23,-184,1849,-314,1251,2011,1131,2488,-956,1132,-8.430912386729423,17.749313675715065,-47.17028931573659
29.324705,2.23,-182,1849,-310,1275,2011,1165,2352,-837,1034,-10.041397794459256,17.908330271628966,-47.47928690814531
29.325701,2.23,-179,1849,-305,1275,2011,1165,2214,-714,920,-11.555307459299538,18.072066739942592,-47.798889026482094
29.326703,2.23,-176,1849,-299,1275,2011,1165,2080,-593,795,-12.969159010023189,18.24105908181369,-48.12852157354226
29.327702,2.23,-173,1849,-293,1275,2011,1165,1953,-473,662,-14.279739284044354,18.415819208203963,-48.4675827056636
29.328705,2.23,-170,1849,-288,1275,2011,1165,1838,-351,523,-15.484107606675646,18.596830556155997,-48.81544465469178
29.329706,2.23,-168,1849,-283,1275,2011,1165,1736,-227,385,-16.579598262873485,18.78454323657268,-49.1714556258303
29.33071,2.23,-166,1849,-280,1275,2011,1165,1643,-101,257,-17.563822204453913,18.97936875685659,-49.53494175890414
29.331708,2.23,-164,1849,-277,1275,2011,1165,1555,21,141,-18.43466803637737,19.181674374768072,-49.90520913975163
29.33271,2.23,-163,1849,-275,1275,2011,1165,1467,139,41,-19.190302325210794,19.391777152001374,-50.28154584806747
29.333716,2.23,-161,1849,-270,1297,2011,1205,1380,250,-43,-19.829169271635937,19.609937786451063,-50.66322402808377
29.334714,2.23,-158,1849,-265,1297,2011,1205,1298,355,-113,-20.349989787211374,19.836354310429517,-51.04950196895942
29.335713,2.23,-155,1849,-258,1297,2011,1205,1218,452,-168,-20.751760013565676,20.071155748248195,-51.439626182583325
29.336716,2.23,-152,1849,-252,1297,2011,1205,1136,539,-207,-21.033749319578344,20.314395831043573,-51.83283346757235
29.337717,2.23,-150,1849,-246,1297,2011,1205,1054,614,-228,-21.19549780864508,20.56604686994015,-52.22835294939237
29.338719,2.23,-148,1849,-242,1297,2011,1205,973,679,-229,-21.236813363941486,20.825993890805133,-52.62540808758902
29.339719,2.23,-146,1849,-238,1297,2011,1205,897,735,-209,-21.157768255229147,21.0940291350716,-53.02321864204105
29.340721,2.23,-144,1849,-234,1297,2011,1205,827,781,-165,-20.958695326731345,21.36984703144875,-53.42100259102928
29.341721,2.23,-143,1849,-232,1297,2011,1205,764,818,-93,-20.640183782116033,21.653039742641468,-53.81797799488114
29.342727,2.23,-142,1849,-228,1315,2011,1246,706,843,5,-20.20307457948427,21.94309338893386,-54.21336480010034
29.343722,2.23,-140,1849,-223,1315,2011,1246,657,856,125,-19.648455446267764,22.23938504586875,-54.606386580243274
29.344725,2.23,-138,1849,-216,1315,2011,1246,616,858,263,-18.977655521101468,22.541180605666572,-54.9962722113284
29.345725,2.23,-135,1849,-210,1315,2011,1246,581,846,417,-18.192239627263035,22.847633581409106,-55.38225748121515
29.346726,2.23,-133,1849,-205,1315,2011,1246,550,823,583,-17.2940021803465,23.157784919842026,-55.76358663407121
29.347726,2.23,-132,1849,-201,1315,2011,1246,521,787,757,-16.284960731457787,23.470563873640952,-56.13951385260094
29.348729,2.23,-131,1849,-197,1315,2011,1246,493,741,936,-15.167349146374871,23.78478996780251,-56.50930468196156
29.349731,2.31,-129,1849,-194,1315,2011,1246,465,688,1115,-13.943610421042772,24.09917607793353,-56.87223740015795
29.350732,2.31,-129,1849,-192,1315,2011,1246,430,632,1286,-12.61638913474216,24.412332620875894,-57.22760434022988
29.351736,2.31,-128,1849,-188,1323,2011,1276,390,580,1439,-11.188523544230907,24.722772840493224,-57.57471316983462
29.352734,2.31,-126,1849,-185,1323,2011,1276,352,532,1564,-9.663037324749666,25.02891915389409,-57.91288813393033
29.353735,2.31,-125,1849,-180,1323,2011,1276,319,491,1655,-8.043130966632754,25.32911050654078,-58.241471266154534
29.354737,2.31,-124,1849,-176,1323,2011,1276,293,459,1713,-6.33217283934606,25.621610669501543,-58.55982357413139
29.355737,2.31,-123,1849,-173,1323,2011,1276,270,437,1740,-4.533689938403813,25.904617399411343,-58.86732620332815
29.356739,2.31,-122,1849,-169,1323,2011,1276,251,426,1737,-2.651358335050662,26.17627237200621,-59.1633815832208
29.357741,2.31,-122,1849,-167,1323,2011,1276,234,427,1705,-0.6889933537311818,26.434671793387142,-59.447414558410884
29.358741,2.31,-121,1849,-165,1323,2011,1276,219,435,1642,1.3494604922413052,26.677877589079955,-59.718873506005885
29.359744,2.31,-121,1849,-164,1323,2011,1276,206,450,1546,3.459939771369358,26.903929068903693,-59.97723143918937
29.360749,2.31,-120,1849,-161,1323,2011,1300,196,467,1416,5.638272571367047,27.11085496493469,-60.221987095648785
29.361746,2.31,-120,1849,-158,1323,2011,1300,190,481,1249,7.880189060454142,27.29668573974638,-60.452666008512246
29.362747,2.31,-120,1849,-155,1323,2011,1300,185,488,1049,10.181332127566485,27.459466062049753,-60.66882155666034
29.363748,2.31,-120,1849,-152,1323,2011,1300,181,488,816,12.537268055325145,27.597267346577084,-60.87003599060756
29.36475,2.31,-120,1849,-149,1323,2011,1300,174,482,555,14.943497179530217,27.708200254716917,-61.055921429495044
29.36575,2.31,-120,1849,-146,1323,2011,1300,164,472,272,17.39546449000734,27.790427052671653,-61.22612082410252
29.366753,2.31,-120,1849,-144,1323,2011,1300,149,460,-25,19.88857012965805,27.84217372554792,-61.380308880200154
29.367751,2.31,-120,1849,-143,1323,2011,1300,129,448,-328,22.418179751195307,27.86174174908281,-61.51819293603307
29.368755,2.31,-120,1849,-142,1323,2011,1300,106,440,-627,24.979634693885952,27.84751942519264,-61.63951378731435
29.369759,2.31,-120,1849,-140,1313,2011,1313,80,435,-912,27.5682619454724,27.79799269250312,-61.74404645290277
29.370757,2.31,-121,1849,-138,1313,2011,1313,55,433,-1176,30.179383857486492,27.711755328117803,-61.83160087446871
29.371755,2.31,-122,1849,-137,1313,2011,1313,33,432,-1412,32.8083275857606,27.587518462144576,-61.90202254396041
29.372757,2.31,-123,1849,-135,1313,2011,1313,13,431,-1615,35.45043423225864,27.424119332179636,-61.9551930535432
29.373758,2.31,-124,1849,-133,1313,2011,1313,-4,432,-1781,38.10106766923539,27.22052921137302,-61.99103056377825
29.37476,2.31,-125,1849,-132,1313,2011,1313,-19,434,-1906,40.75562303179921,26.9758604511359,-62.009490186943175
29.37576,2.31,-125,1849,-131,1313,2011,1313,-34,438,-1989,43.40953486983316,26.689372588043316,-62.01056428335835
29.376762,2.31,-126,1849,-130,1313,2011,1313,-46,442,-2031,46.05828495477482,26.360477473788855,-61.994282669193424
29.377763,2.31,-126,1849,-129,1313,2011,1313,-58,442,-2036,48.69740974099822,25.988743396722416,-61.96071273439028
29.378769,2.31,-127,1849,-128,1303,2011,1322,-70,437,-2005,51.322507485531794,25.573898173116202,-61.909959469080185
29.379766,2.31,-128,1849,-127,1303,2011,1322,-83,427,-1944,53.92924503346967,25.115831195567825,-61.84216539631529
29.380767,2.31,-129,1849,-126,1303,2011,1322,-96,411,-1862,56.5133642793757,24.614594434719773,-61.75751040822636
29.381768,2.31,-131,1849,-125,1303,2011,1322,-113,391,-1765,59.070688316916446,24.070402398701518,-61.65621150198682
29.382769,2.31,-132,1849,-124,1303,2011,1322,-131,368,-1657,61.59712728971037,23.48363106242107,-61.53852241130506
29.38377,2.31,-133,1849,-123,1303,2011,1322,-149,346,-1543,64.088683955933,22.854815786183167,-61.40473312868734
29.384772,2.31,-133,1849,-123,1303,2011,1322,-166,326,-1430,66.54145897766288,22.184648250311827,-61.25516931350548
29.385774,2.31,-134,1849,-122,1303,2011,1322,-179,310,-1323,68.95165594336903,21.47397243977744,-61.0901915809714
29.386774,2.31,-134,1849,-122,1303,2011,1322,-189,293,-1227,71.31558612852345,20.72377972044882,-60.9101946673746
29.387777,2.31,-135,1849,-121,1288,2011,1322,-202,276,-1146,73.62967299551514,19.935203056362084,-60.71560646728458
29.388776,2.31,-137,1849,-121,1288,2011,1322,-214,255,-1086,75.89045643028716,19.109510424884416,-60.50688693884909
29.389778,2.31,-139,1849,-121,1288,2011,1322,-221,229,-1057,78.0945967096967,18.24809749339951,-60.28452687391581
29.390781,2.31,-141,1849,-121,1288,2011,1322,-220,197,-1064,80.23887819072687,17.352479626869126,-60.04904653052245
29.391779,2.31,-142,1849,-121,1288,2011,1322,-210,157,-1110,82.3202127105508,16.424283300238407,-59.8009941263023
29.392782,2.31,-144,1849,-121,1288,2011,1322,-196,105,-1194,84.33564268519305,15.46523699313842,-59.54094419256111
29.393783,2.31,-145,1849,-121,1288,2011,1322,-181,40,-1312,86.28234389398463,14.477161646629552,-59.269495790318146
29.394786,2.31,-146,1849,-121,1288,2011,1322,-164,-34,-1460,88.15762793666063,13.461960762719828,-58.987270591563764
29.395784,2.31,-147,1849,-121,1288,2011,1322,-146,-114,-1632,89.95894434952129,12.421610227093728,-58.69491083135473
29.39679,2.31,-148,1849,-120,1273,2011,1340,-128,-195,-1823,91.6838823668663,11.358147934150773,-58.39307713901553
29.397786,2.31,-150,1849,-118,1273,2011,1340,-107,-274,-2029,93.33017231440787,10.273663291489354,-58.08244625942607
29.398788,2.31,-152,1849,-117,1273,2011,1340,-83,-347,-2249,94.89568662290948,9.170286678632948,-57.76370867792281
29.399789,2.31,-153,1849,-115,1273,2011,1340,-56,-415,-2477,96.37844045298017,8.050178932027475,-57.43756616450791
29.400791,2.31,-155,1849,-113,1273,2011,1340,-25,-481,-2706,97.77659192571242,6.915520924985658,-57.104729254697254
29.401792,2.31,-157,1849,-111,1273,2011,1340,9,-549,-2927,99.08844195862258,5.768503307234555,-56.76591468536903
29.402795,2.31,-158,1849,-110,1273,2011,1340,48,-617,-3130,100.31243371194007,4.61131646397394,-56.42184280437588
29.403795,2.31,-159,1849,-109,1273,2011,1340,90,-687,-3312,101.44715165622873,3.446140748800007,-56.07323497248786
29.404798,2.31,-160,1849,-109,1273,2011,1340,130,-763,-3468,102.49132027814126,2.275137038493682,-55.720810975505856
29.405802,2.31,-162,1849,-108,1244,2011,1350,166,-847,-3595,103.4438024465576,1.100437650733474,-55.36528646314724
29.4068,2.31,-165,1849,-106,1244,2011,1350,199,-934,-3693,104.30359746641435,-0.0758623412837738,-55.007370429648795
29.407799,2.31,-168,1849,-105,1244,2011,1350,231,-1019,-3762,105.06983885228497,-1.2517133700804886,-54.64776274921764
29.408802,2.31,-172,1849,-104,1244,2011,1350,265,-1095,-3801,105.74179185817935,-2.4251191899695543,-54.28715177777832
29.409803,2.31,-175,1849,-103,1244,2011,1350,300,-1161,-3812,106.31885080389267,-3.5941442327236044,-53.926212031040215
29.410806,2.31,-178,1849,-102,1244,2011,1350,336,-1217,-3794,106.80053624129762,-4.75692049322914,-53.565601947686474
29.411806,2.31,-180,1849,-102,1244,2011,1350,374,-1266,-3749,107.18649200597751,-5.911653940995975,-53.205961745312855
29.412807,2.31,-182,1849,-101,1244,2011,1350,417,-1309,-3679,107.47648220036685,-7.056630458412119,-52.84791137550805
29.413807,2.31,-184,1849,-101,1244,2011,1350,463,-1344,-3589,107.6703881541292,-8.190221310733126,-52.492048583150776
29.414814,2.31,-186,1849,-100,1216,2011,1357,513,-1369,-3480,107.76820540607854,-9.310888155654956,-52.13894707367684
29.415809,2.31,-190,1849,-99,1216,2011,1357,566,-1381,-3357,107.77004074986928,-10.417187601893053,-51.78915479088086
29.416812,2.31,-194,1849,-98,1216,2011,1357,623,-1379,-3226,107.67610938315407,-11.507775326700653,-51.443192306936645
29.417813,2.31,-198,1849,-98,1216,2011,1357,682,-1360,-3094,107.48673219688985,-12.581409762031559,-51.10155132588214
29.418815,2.31,-201,1849,-97,1216,2011,1357,743,-1326,-2967,107.20233323787534,-13.636955358305938,-50.764693301840936
29.419816,2.31,-204,1849,-96,1216,2011,1357,807,-1277,-2849,106.82343737346069,-14.673385433503,-50.43304817363413
29.420817,2.31,-207,1849,-96,1216,2011,1357,874,-1215,-2746,106.35066818277758,-15.689784613458135,-50.10701321802231
29.421818,2.31,-209,1849,-96,1216,2011,1357,942,-1142,-2662,105.78474609394056,-16.68535086662955,-49.78695202453215
29.422819,2.31,-210,1849,-95,1216,2011,1357,1010,-1060,-2599,105.12648678154876,-17.659397133138143,-49.473193595652106
29.423823,2.31,-213,1849,-95,1188,2011,1357,1076,-971,-2556,104.37679983341283,-18.61135254354981,-49.16603157709429
29.424821,2.31,-217,1849,-95,1188,2011,1357,1137,-879,-2534,103.53668768973276,-19.540763217723214,-48.86572362370105
29.425823,2.31,-221,1849,-95,1188,2011,1357,1194,-787,-2533,102.60724485210187,-20.447292628332246,-48.572490907259166
29.426824,2.31,-226,1849,-95,1188,2011,1357,1251,-698,-2553,101.58965735389525,-21.330721507781487,-48.28651777283649
29.427824,2.31,-229,1849,-95,1188,2011,1357,1308,-613,-2594,100.4852024780038,-22.190947271585067,-48.007951550243334
29.428825,2.31,-233,1849,-95,1188,2011,1357,1363,-530,-2655,99.29524870268521,-23.027982926224134,-47.736902526879895
29.429826,2.31,-235,1849,-95,1188,2011,1357,1417,-448,-2734,98.02125585170323,-23.841955425263162,-47.47344408759424
29.430831,2.31,-237,1849,-95,1188,2011,1357,1468,-365,-2826,96.664775421053,-24.63310343433655,-47.21761302621976
29.431831,2.31,-239,1849,-95,1188,2011,1357,1518,-287,-2926,95.22745105141144,-25.401774463994087,-46.96941003214366
29.432837,2.31,-240,1849,-95,1188,2011,1357,1564,-217,-3029,93.71101911289271,-26.148421329981502,-46.728800353627705
29.433834,2.31,-241,1849,-95,1188,2011,1357,1607,-158,-3128,92.11730936667857,-26.873597903875574,-46.495714637810984
29.434837,2.31,-242,1849,-95,1188,2011,1357,1646,-111,-3217,90.44824566669406,-27.57795412319304,-46.27004994550102
29.435837,2.31,-242,1849,-95,1188,2011,1357,1683,-73,-3295,88.70584666381868,-28.262230238761962,-46.051670937065026
29.43684,2.31,-243,1849,-95,1188,2011,1357,1715,-42,-3358,86.89222647524342,-28.927250287730413,-45.84041122399839
29.437841,2.31,-243,1849,-95,1188,2011,1357,1743,-14,-3403,85.00959528246771,-29.573914792616964,-45.636074879080155
29.438844,2.31,-243,1849,-95,1188,2011,1357,1762,12,-3429,83.06025982290352,-30.203192699880084,-45.43843809642869
29.439845,2.31,-243,1849,-95,1188,2011,1357,1773,34,-3432,81.04662374190869,-30.816112585318,-45.24725099127893
29.440848,2.31,-243,1849,-95,1188,2011,1357,1774,49,-3409,78.97118777418889,-31.413753168027732,-45.06223952796806
29.441852,2.4,-243,1849,-95,1188,2011,1357,1764,59,-3361,76.83654972586874,-31.997233189336665,-44.883107563499976
29.442849,2.4,-243,1849,-95,1188,2011,1357,1746,66,-3286,74.64540423111626,-32.567700727498796,-44.709538993216995
29.443849,2.4,-243,1849,-95,1188,2011,1357,1721,72,-3183,72.40054225996131,-33.12632203230308,-44.541199984528966
29.444851,2.4,-243,1849,-95,1188,2011,1357,1689,80,-3051,70.10485035681972,-33.67426997543882,-44.37774128424146
29.445851,2.4,-243,1849,-95,1188,2011,1357,1656,89,-2890,67.76130959205064,-34.21271222221054,-44.21880058469025
29.446855,2.4,-243,1849,-95,1188,2011,1357,1628,101,-2705,65.37299421134928,-34.74279923799585,-44.06400493357264
29.447855,2.4,-243,1849,-95,1188,2011,1357,1600,115,-2496,62.94306996960565,-35.26565224868779,-43.91297317203035
29.448857,2.4,-243,1849,-95,1188,2011,1357,1574,129,-2263,60.47479213687937,-35.78235127821546,-43.76531838520036
29.44986,2.4,-243,1849,-95,1188,2011,1357,1551,145,-2016,57.97150316450553,-36.293923388181355,-43.62065034919099
29.450866,2.4,-243,1849,-95,1188,2011,1357,1523,161,-1764,55.43662999946094,-36.8013312448789,-43.47857795832727
29.451861,2.4,-243,1849,-95,1188,2011,1357,1483,175,-1513,52.87368103541522,-37.30546213761384,-43.33871161657648
29.452862,2.4,-243,1849,-95,1188,2011,1357,1434,188,-1271,50.2862426897556,-37.807117569494835,-43.20066557741126
29.453863,2.4,-243,1849,-95,1188,2011,1357,1381,200,-1046,47.67797559736441,-38.30700353787119,-43.064060217128336
29.454865,2.4,-243,1849,-95,1188,2011,1357,1327,214,-839,45.05261041350286,-38.80572161654723,-42.92852422783491
29.455865,2.4,-243,1849,-95,1188,2011,1357,1268,232,-650,42.41394321915869,-39.303760945696055,-42.79369671779362
29.456869,2.4,-243,1849,-95,1188,2011,1357,1207,255,-475,39.76583052240651,-39.80149122755772,-42.65922920835494
29.457869,2.4,-243,1849,-95,1188,2011,1357,1147,285,-313,37.112183848754825,-40.299156815974676,-42.524787518122615
29.458872,2.4,-243,1849,-95,1188,2011,1357,1092,322,-168,34.456963912283854,-40.796871975321274,-42.39005352620891
29.459877,2.4,-243,1849,-95,1188,2011,1357,1042,366,-42,31.804174357977605,-41.29461736958315,-42.25472680741318
29.460874,2.4,-243,1849,-95,1188,2011,1357,993,412,62,29.157855064500932,-41.792237825795326,-42.11852613293781
29.461875,2.4,-243,1849,-95,1188,2011,1357,937,456,144,26.522074996278977,-42.28944139870878,-41.9811908309876
29.462878,2.4,-243,1849,-95,1188,2011,1357,874,492,200,23.9009245945246,-42.78579974658331,-41.842482002477226
29.463877,2.4,-243,1849,-95,1188,2011,1357,812,516,229,21.298507698869063,-43.28074981226847,-41.70218358818053
29.464878,2.4,-243,1849,-95,1188,2011,1357,761,525,229,18.718932993958795,-43.77359678948647,-41.56010328488755
29.46588,2.4,-243,1849,-95,1188,2011,1357,726,528,205,16.166304978005257,-44.26351834126676,-41.41607330929204
29.466883,2.4,-243,1849,-95,1188,2011,1357,704,531,158,13.644714452466594,-44.749570025452485,-41.26995100932241
29.467882,2.4,-243,1849,-95,1188,2011,1357,692,538,99,11.158228534266634,-45.23069187070244,-41.12161932354302
29.468887,2.4,-243,1849,-95,1188,2011,1357,693,548,43,8.710880195153278,-45.70571603501182,-40.970987090254454
29.469886,2.4,-243,1849,-95,1188,2011,1357,709,550,3,6.306657337627041,-46.173375467177635,-40.81798920903099
29.470887,2.4,-243,1849,-95,1188,2011,1357,737,539,-13,3.9494914232901346,-46.6323134799372,-40.66258665841159
29.471887,2.4,-243,1849,-95,1188,2011,1357,771,511,0,1.6432456769864585,-47.08109413223026,-40.504766374011275
29.472889,2.4,-243,1849,-95,1188,2011,1357,804,470,44,-0.6082971016812438,-47.51821330790069,-40.34454099141293
29.47389,2.4,-243,1849,-95,1188,2011,1357,827,419,119,-2.801447079026605,-47.94211036976267,-40.18194845814177
29.474892,2.4,-243,1849,-95,1188,2011,1357,835,358,225,-4.9326202299721285,-48.351180261530786,-40.017051519217794
29.475893,2.4,-243,1849,-95,1188,2011,1357,830,284,366,-6.998351421630602,-48.74378592559046,-39.84993708143553
29.476893,2.4,-243,1849,-95,1188,2011,1357,816,189,550,-8.995307664838109,-49.11827090203481,-39.68071546255196
29.477899,2.4,-243,1849,-94,1188,2011,1371,793,75,782,-10.920301449362801,-49.47297197425155,-39.50951953274047
29.478897,2.4,-243,1849,-93,1188,2011,1371,762,-54,1070,-12.770304069313962,-49.8062317291876,-39.336503756819845
29.479897,2.4,-243,1849,-92,1188,2011,1371,730,-189,1412,-14.542458839263347,-50.116410906472794,-39.16184314685195
29.480898,2.4,-243,1849,-90,1188,2011,1371,699,-327,1802,-16.234094098689766,-50.40190041930387,-38.98573213569615
29.481899,2.4,-243,1849,-89,1188,2011,1371,668,-461,2229,-17.842735901601127,-50.66113294003576,-38.80838338286478
29.4829,2.4,-243,1849,-88,1188,2011,1371,635,-588,2683,-19.366120288492294,-50.89259395313529,-38.63002652430204
29.4839,2.4,-243,1849,-87,1188,2011,1371,597,-701,3151,-20.80220503873494,-51.09483218630008,-38.450906877341446
29.484904,2.4,-243,1849,-86,1188,2011,1371,559,-796,3623,-22.14918080345846,-51.26646933691696,-38.271284111046675
29.485906,2.4,-243,1849,-86,1188,2011,1371,524,-869,4088,-23.405481522621965,-51.40620901634969,-38.09143089046362
29.48691,2.4,-243,1849,-85,1188,2011,1378,492,-920,4536,-24.569794035612727,-51.512844839899486,-37.91163150120318
29.487906,2.23,-243,1849,-84,1188,2011,1378,464,-953,4958,-25.641066802215025,-51.585267596633315,-37.73218045861175
29.488908,2.23,-243,1849,-84,1188,2011,1378,441,-972,5339,-26.61851765975882,-51.62247144126829,-37.553381104014406
29.489909,2.23,-243,1849,-83,1188,2011,1378,427,-982,5673,-27.501640552160136,-51.62355906019297,-37.37554418946229
29.490911,2.23,-243,1849,-82,1188,2011,1378,428,-981,5957,-28.290211177007006,-51.58774577530795,-37.19898645222206
29.49191,2.23,-243,1849,-81,1188,2011,1378,447,-967,6189,-28.98429150761114,-51.51436256211507,-37.02402918093174
29.492912,2.23,-243,1849,-81,1188,2011,1378,480,-940,6375,-29.58423315786597,-51.402857971749484,-36.85099677685519
29.493913,2.23,-243,1849,-81,1188,2011,1378,527,-902,6519,-30.090679568459798,-51.25279896010545,-36.68021531585594
29.494917,2.23,-243,1849,-80,1188,2011,1378,587,-858,6620,-30.50456700277459,-51.063870641034825,-36.51201111936621
29.495925,2.23,-243,1849,-80,1188,2011,1388,659,-814,6672,-30.827124348912307,-50.83587499530794,-36.34670934544123
29.496923,2.23,-243,1849,-79,1188,2011,1388,741,-770,6674,-31.059871730464188,-50.5687285828885,-36.18463261356118
29.497924,2.23,-243,1849,-78,1188,2011,1388,830,-725,6630,-31.20461793314265,-50.262459322597266,-36.02609967880092
29.498925,2.23,-243,1849,-77,1188,2011,1388,920,-675,6551,-31.263456657802443,-49.91720241923022,-35.8714241721127
29.499925,2.23,-243,1849,-76,1188,2011,1388,1007,-622,6450,-31.238761613304277,-49.53319553223998,-35.72091342367534
29.500927,2.23,-243,1849,-75,1188,2011,1388,1087,-565,6345,-31.13318046550263,-49.110773291081586,-35.57486738554061
29.501927,2.23,-243,1849,-74,1188,2011,1388,1158,-508,6255,-30.94962766148359,-48.65036126985448,-35.433577668138824
29.50293,2.23,-243,1849,-74,1188,2011,1388,1222,-450,6191,-30.69127615098413,-48.15246953827816,-35.29732670258776
29.50393,2.23,-243,1849,-74,1188,2011,1388,1279,-389,6157,-30.361548029470487,-47.617685908129694,-35.16638703728686
29.504933,2.23,-243,1849,-73,1188,2011,1388,1334,-322,6160,-29.964104129409076,-47.04666899485754,-35.04102077325362
29.505936,2.23,-243,1849,-72,1188,2011,1401,1391,-248,6211,-29.502832587738943,-46.440141213498116,-34.92147913847819
29.506935,2.23,-243,1849,-71,1188,2011,1401,1447,-174,6316,-28.981836418451223,-45.79888182598158,-34.808002197640015
29.507934,2.23,-243,1849,-70,1188,2011,1401,1499,-100,6474,-28.40542011969738,-45.123720152909804,-34.700818690062526
29.508935,2.23,-243,1849,-69,1188,2011,1401,1549,-23,6681,-27.778075345483998,-44.41552905664241,-34.60014598579562
29.509937,2.23,-243,1849,-67,1188,2011,1401,1589,61,6927,-27.10446567337003,-43.67521879405977,-34.50619014717611
29.510939,2.23,-243,1849,-66,1188,2011,1401,1618,155,7202,-26.38941050216041,-42.90373132664536,-34.41914608108482
29.51194,2.23,-243,1849,-65,1188,2011,1401,1635,254,7498,-25.63786811755441,-42.10203516210919,-34.33919776535325
29.512941,2.23,-243,1849,-65,1188,2011,1401,1644,354,7807,-24.854917968764195,-41.27112078512009,-34.26651853139961
29.513942,2.23,-243,1849,-64,1188,2011,1401,1651,451,8127,-24.045742204898342,-40.411996714862155,-34.20127138430119
29.51495,2.23,-243,1849,-63,1188,2011,1411,1662,539,8454,-23.215606526367417,-39.52568620506332,-34.143609341261666
29.515947,2.23,-243,1849,-62,1188,2011,1411,1680,610,8782,-22.369840413920315,-38.613224579676164,-34.0936757698824
29.516947,2.23,-243,1849,-61,1188,2011,1411,1705,658,9105,-21.513816806346295,-37.67565717663525,-34.05160470878227
29.517947,2.23,-243,1849,-60,1188,2011,1411,1742,682,9416,-20.652931307243175,-36.71403785483249,-34.017521154902624
