time,altitude,rc_ele,rc_thr,rc_rud,tx_ele,tx_thr,tx_rud,acc_X,acc_Y,acc_Z,gyro_pitch,gyro_roll,gyro_yaw
29.000273,1.852606379880456,-469.37245224840785,1848.999993024366,-277.05672871848157,1010.4989023574323,2010.9991860501484,1119.2382402161113,4382.84271590596,1051.5312138705776,12132.477710330739,42.48170303868866,-38.85246465448415,-43.12614369881829
29.001273,1.853307655405937,-468.7526311284559,1848.9999838307788,-278.92175484327896,1011.171278024171,2010.999154027914,1118.462768714059,4454.0518033413955,1015.4994438059808,12135.525841926852,40.91366579037099,-37.35139703401745,-43.0377302401749
29.002275,1.8540114534730538,-468.1032199570229,1848.9999744296495,-280.7882370344679,1011.8657182213193,2010.9991220723139,1117.687101953657,4525.105209063019,979.6726800020483,12135.36167738199,39.36031083856468,-35.82576349836172,-42.95606376538245
29.003274,1.8547177699096455,-467.42392513139754,1848.99996482532,-282.6553227731659,1012.5823862323628,2010.9990902168936,1116.9116592643475,4595.8560129513935,944.1170137029118,12131.884165821391,37.82409384764065,-34.276768377741284,-42.881747095968635
29.004277,1.8554266004767144,-466.71446754313746,1848.9999550224404,-284.52215403157635,1013.32143588428,2010.9990584959157,1116.1368644077606,4666.155357972687,908.8982639084722,12124.99909356647,36.30744366723207,-32.70564947738413,-42.81538121690015
29.005279,1.8561379408684309,-465.97458295446984,1848.9999450259713,-286.3878679455524,1014.083011353853,2010.9990269443422,1115.363145289165,4735.852863409681,874.0817523764507,12114.61947880034,34.812756493165566,-31.113675170297316,-42.75756316396392
29.00628,1.856851786712139,-465.2040223627953,1848.9999348411877,-288.2515974920404,1014.8672469811147,2010.9989955978178,1114.5909336639197,4804.797045993151,839.7320797503872,12100.665941456427,33.34239014726002,-29.502141539256833,-42.70888391406936
29.00728,1.8575681335683651,-464.4025523526342,1848.999924473682,-290.11247217040466,1015.6742670902238,2010.9989644926507,1113.8206648392595,4872.835747202716,805.9129038961406,12083.06704609289,31.898658484919203,-27.872369589404624,-42.66992629316307
29.008286,1.8582869769308303,-463.56995543436864,1848.9999139293652,-291.96961868664494,1016.5041858180489,2010.9989336657907,1113.0527773717586,4939.816565008427,772.6867215171869,12061.759615465735,30.48382594220202,-26.225702553840573,-42.641262916049996
29.009284,1.8590083122264638,-462.7060303691525,1848.999903214469,-293.82216163952955,1017.3571069507401,2010.9989031548082,1112.2877127608253,5005.58728833643,740.114654095078,12036.689012467437,29.10010223621728,-24.56350331367606,-42.62345417113113
29.010286,1.8597321348154205,-461.8105924793822,1848.999892335548,-295.66922420768276,1018.2331237685512,2010.998872997872,1111.5259151385872,5069.996332562487,708.2562391645633,12007.809388065241,27.749637234735822,-22.88715195103814,-42.61704626120351
29.011286,1.8604584399910984,-460.88347394414035,1848.9998812994802,-297.509928836679,1019.1323188991723,2010.9988432337266,1110.7678309565285,5132.893174364878,677.1692278832905,11975.083892864242,26.43451601338594,-21.19804344918197,-42.62256930940356
29.012288,1.86118722298016,-459.9245240790488,1848.9998701134684,-299.34339792521854,1020.0547641798184,2010.9988139016657,1110.0139086692423,5194.128784302706,646.9093897951357,11938.484849944245,25.156754121608486,-19.49758554919987,-42.640535537363625
29.013289,1.8619184789425562,-458.93360959999234,1848.9998587850407,-301.1687545094778,1021.0005205283094,2010.998785041508,1109.2645984156438,5253.556055526398,617.530325616264,11897.993886685046,23.91829308109095,-17.787196768525277,-42.671437520839916
29.014294,1.8626522029715507,-457.9106148701991,1848.9998473220496,-302.9851229447537,1021.9696378233639,2010.9987566935695,1108.5203516979916,5311.030227073756,589.0832887961876,11853.602023409578,22.720996141908643,-16.068304582766338,-42.71574652654284
29.015292,1.86338839009375,-456.85544213019324,1848.9998357326742,-304.79162958354544,1022.9621547943169,2010.9987288986347,1107.7816210590413,5366.409300256034,561.6170165241267,11805.30971684431,21.566644321406244,-14.342343769214049,-42.77391093267036
29.016294,1.8641270352691353,-455.768011710161,1848.9998240254201,-306.5874034492499,1023.9780989204545,2010.9987016979283,1107.0488597576582,5419.554446692792,535.1775707651614,11753.126856625795,20.45693274876755,-12.610754907346763,-42.846354734722716
29.017298,1.8648681333910935,-454.6482622243034,1848.9998122091185,-308.37157690467467,1025.0174863401462,2010.9986751330841,1106.3225214431989,5470.330406609858,509.8081898221344,11697.072713373433,19.393467334593073,-10.874983028677565,-42.933476137607656
29.018298,1.8656116792864543,-453.49615074677985,1848.9998002929244,-310.14328631460825,1026.0803217699383,2010.9986492461146,1105.6030598289658,5518.605876070358,485.5491508294405,11637.175837201412,18.377761780214332,-9.136476405428766,-43.035646234797234
29.019299,1.8663576677155274,-452.31165296887804,1848.9997882863156,-311.9016727017191,1027.1665984337526,2010.9986240793776,1104.8909283650303,5564.25388186356,462.4376434955825,11573.47390595513,17.411234936566174,-7.396685464837561,-43.15320777523468
29.020301,1.8671060933721428,-451.09476333708045,1848.99977619909,-313.6458823950888,1028.2762980023215,2010.998599675543,1104.1865799107081,5607.152142829871,440.5076553248273,11506.01352292465,16.495208517639973,-5.657061813527788,-43.286474018642814
29.021301,1.8678569508836935,-449.8454951717303,1848.999764041366,-315.37506767072,1029.409390542968,2010.998576077557,1103.4904664069588,5647.183416452935,419.7898684665449,11434.849964303605,15.630905168809576,-3.919057354470192,-43.435727679678315
29.022304,1.8686102348111808,-448.5638807660374,1848.999751823578,-317.0883873833968,1030.565834479818,2010.998553328606,1102.8030385489644,5684.2358296021785,400.3115682655336,11360.04687721779,14.819446885560005,-2.1841234775813083,-43.601219960885985
29.023303,1.869365939649262,-447.2499714652003,1848.9997395564753,-318.7850075893103,1031.7455765645157,2010.9985314720795,1102.124745459127,5718.203192362244,382.0965635188472,11281.675929733257,14.061853773570848,-0.4537103039278412,-43.78316967364688
29.024305,1.8701240598263003,-445.90383772545823,1848.9997272511175,-320.4641021589007,1032.9485518574852,2010.9985105515314,1101.456034360712,5748.9852939408465,365.1651183847144,11199.816414856885,13.35904313697739,1.2707340371145939,-43.98176244541677
29.025304,1.8708845897044182,-444.52556915292786,1848.9997149188705,-322.12485337940655,1034.1746837197647,2010.9984906106408,1100.7973502523441,5776.488179704669,349.5338958369004,11114.55481114957,12.711828878133437,2.9877641184318966,-44.197150010731434
29.026312,1.8716475235795518,-443.11527452211703,1848.999702571404,-323.766452546649,1035.4238838154083,2010.998471693172,1100.149135583555,5800.624408454868,335.2159125127773,11025.984303168816,12.120921189486932,4.695937933409036,-44.42944958295585
29.027307,1.872412855681507,-441.67308177405204,1848.999690220687,-325.3881005456198,1036.6960521244325,2010.9984538429314,1099.5118299315632,5821.313289120082,322.22050476480786,10934.204265528828,11.58692651622552,6.393817639990492,-44.678743303675404
29.028309,1.8731805801740198,-440.19913799399524,1848.999677878983,-326.9890084194784,1037.991076966255,2010.998437103726,1098.8858696794562,5838.48109611583,310.5533056925041,10839.31971489745,11.1103477670248,8.079970345898197,-44.94507776682101
29.029309,1.8739506911548187,-438.693609368775,1848.999665558845,-328.5683979266035,1039.3088350335547,2010.9984215193197,1098.271687695936,5852.061262694884,300.2162329047916,10741.440734726557,10.691584749519816,9.752968946858095,-45.228463614815
29.030312,1.8747231826556903,-437.15668112379103,1848.9996532731095,-330.12550208538045,1040.6491914364683,2010.9984071333863,1097.669713016769,5861.994551693474,291.20748674082324,10640.681877922816,10.330934806939034,11.41139302603086,-45.52887520402359
29.031312,1.8754980486425457,-435.58855743980064,1848.9996410348915,-331.65956570644386,1042.0119997570189,2010.9983939894662,1097.080370528078,5868.22920316263,283.52155866041414,10537.161552997646,10.02859363257613,13.053829819437551,-45.846250336580916
29.032314,1.87627528301549,-433.9894613496307,1848.999628857577,-333.1698459121288,1043.3971021136647,2010.9983821309177,1096.5040806516015,5870.721058461974,277.14924950310626,10431.001399478999,9.784656239644299,14.678875249255032,-46.180490055357026
29.033316,1.8770548796088937,-432.35963461499836,1848.9996167548154,-334.65561264291904,1044.8043292358373,2010.9983716008699,1095.941259032035,5869.433660484084,272.07769730718815,10322.325658516032,9.599118065987339,16.28513502429582,-46.53145849869619
29.034319,1.8778368321914674,-430.6993375836571,1848.999604740514,-336.1161491507137,1046.2335005483276,2010.9983624421745,1095.3923162265612,5864.338329770598,268.2904143766565,10211.260544655657,9.471876196332847,17.871225804411516,-46.89898281171843
29.035322,1.8786211344663386,-429.0088490271191,1848.9995928288292,-337.55075247876425,1047.6844242653608,2010.998354697356,1094.8576573966616,5855.414216376212,265.7673332850325,10097.93362471495,9.402730689101343,19.435776422846367,-47.28285311147193
29.036319,1.879407780071132,-427.2884659592375,1848.9995810341582,-338.95873392816566,1049.1568974941836,2010.9983484085612,1094.3376820023057,5842.648327433293,264.4848615098102,9982.473209515603,9.39138599970091,20.977429158180513,-47.6828225038562
29.037319,1.8801967625780487,-425.5385034359632,1848.999569371131,-340.33941951081283,1050.6507063479685,2010.9983436175087,1093.8327834985957,5826.035530467911,264.4159443993174,9865.00776398863,9.43745249722272,22.494841046344877,-48.09860715074479
29.038322,1.8809880754939512,-423.75929433662,1848.9995578546025,-341.6921503887625,1052.165626067831,2010.9983403654358,1093.34334903494,5805.578532617383,265.5301361837049,9745.665340804571,9.540448076377372,23.986685224052046,-48.52988638600667
29.039323,1.8817817122604483,-421.95118912707164,1848.999546499643,-343.01628329996583,1053.701421153737,2010.998338693046,1092.8697591568246,5781.287835999776,267.7936787523997,9624.573042244177,9.699799871411528,25.451652298008334,-48.97630287921107
29.040325,1.882577666253985,-420.11455560518374,1848.9995353215274,-344.31119097036134,1055.2578455040702,2010.9983386404544,1092.412387510248,5753.18166958677,271.1695879309201,9501.856514506482,9.914846083621093,26.88845173883677,-49.437462845827866
29.041325,1.8833759307859321,-418.24977862900784,1848.9995243357246,-345.57626251234234,1056.8346425636182,2010.9983402471341,1091.9716005488701,5721.285898032376,275.6177470004721,9377.639478067238,10.18483793897042,28.295813303652334,-49.91293630286136
29.042329,1.8841764991026786,-416.3572598281426,1848.9995135578877,-346.81090380963377,1058.4315454797222,2010.9983435518604,1091.5477572439318,5685.633908010427,281.0950072149483,9252.043297064052,10.508941797039308,29.67248849554743,-50.402257369169305
29.043329,1.8849793643857293,-414.4374172987477,1848.9995030038438,-348.01453788863626,1060.0482772663242,2010.9983485926557,1091.141208796988,5646.266472712355,287.5552950826886,9125.186590009995,10.88624143652912,31.017252071182888,-50.904924610216234
29.044335,1.885784519751802,-412.4906852827104,1848.9994926895808,-349.18660527631295,1061.6845509756313,2010.9983554067328,1090.752298355499,5603.231595252334,294.94972619511714,8997.184883440794,11.31574054550545,32.32890360927626,-51.420401427690635
29.045332,1.8865919582529274,-410.5175138314884,1848.999482631236,-350.32656434471386,1063.3400698770997,2010.9983640304388,1090.3813607313193,5556.584331817982,303.2267254008193,8868.150309398348,11.796365446299415,33.606269153618385,-51.94811649531791
29.046333,1.887401672876551,-408.518368455171,1848.9994728450831,-351.4338916422504,1065.0145276434293,2010.9983744991957,1090.0287221221174,5506.3865954900575,312.3321531406874,8738.191346961476,12.32696808529989,34.84820294501791,-52.487464243317895
29.047334,1.8882136565456382,-406.49372975732734,1848.9994633475192,-352.5080822118475,1066.70760854324,2010.9983868474453,1089.694699835767,5452.706941732562,322.2094377759435,8607.412607369468,12.906329316539695,36.05358925761914,-53.037805395192215
29.048335,1.8890279021187832,-404.4440930562284,1848.9994541550534,-353.5486498961165,1068.4189876400965,2010.9984011085896,1089.379602017745,5395.620336624063,332.7997137547424,8475.914661659524,13.533162505064846,37.221344356215766,-53.5984675617403
29.049334,1.8898444023903198,-402.36996799305234,1848.9994452842914,-354.55512762970307,1070.1483309975347,2010.998417314932,1089.083727381577,5335.20790896103,344.0419654737358,8343.79390916867,14.206117471868529,38.3504185920126,-54.168745898281706
29.050339,1.890663150090433,-400.27187812770205,1848.9994367519205,-355.527067718977,1071.895295889736,2010.9984354976202,1088.8073649423773,5271.556687414175,355.87317669813655,8211.142484745737,14.923784796989164,39.43979865411451,-54.747903831943866
29.051337,1.8914841378852736,-398.1503605228794,1848.9994285746973,-356.4640421092377,1073.6595310174835,2010.9984556865845,1088.5507937535297,5204.759323959258,368.22848540766876,8078.0482020889285,15.68470049128031,40.48850999225023,-55.33517386646762
29.05234,1.8923073583770749,-396.0059653170812,1848.999420769432,-357.3656426396161,1075.4406767290238,2010.9984779104786,1088.3142826465712,5134.913804834861,381.04134393674025,7944.594530276939,16.487351040351257,41.49561942273023,-55.92975847225271
29.053344,1.8931328041042712,-393.8392552871964,1848.999413352972,-358.2314812858578,1077.2383652454466,2010.998502196621,1088.098089974335,5062.123150302393,394.24368427556163,7810.860600301333,17.330178816572733,42.46023792475421,-56.5308310694683
29.054343,1.8939604675416193,-391.6508054014009,1848.9994063421875,-359.0611903911747,1079.0522208901746,2010.9985285709352,1087.902463357421,4986.49510449869,407.76608839475455,7676.921238236988,18.21158784728337,43.38152362837642,-57.137537112225694
29.055342,1.8947903411003224,-389.4412023630604,1848.9993997539534,-359.8544228853548,1080.8818603221484,2010.998557057888,1087.7276394340695,4908.141816680201,421.5379634489499,7542.847021605001,19.129949919664703,44.25868498897407,-57.74899528217264
29.056343,1.8956224171281562,-387.21104414637233,1848.9993936051326,-360.61085249231667,1082.7268927722798,2010.998587680432,1087.5738436135152,4827.1795151602,435.48772170457687,7408.704355485222,20.083610995275706,45.09098413600027,-58.36429880038702
29.057344,1.8964566879095963,-384.9609395244876,1848.999387912558,-361.3301739262967,1084.5869202827373,2010.9986204599443,1087.4412898329117,4743.728175237234,449.5429650232806,7274.5555650175975,21.070897899864487,45.877740376052714,-58.98251686691607
29.058346,1.8972931456659525,-382.6915075908722,1848.999382693016,-362.012103076852,1086.4615379486336,2010.9986554161676,1087.3301803179136,4657.911182403805,463.6306737153004,7140.459001085281,22.090125246685073,46.61833382183378,-59.60269623746118
29.059347,1.8981317825555015,-380.40337727467517,1848.9993779632298,-362.6563771828612,1088.3503341616788,2010.9986925671499,1087.24070534702,4569.85499210906,477.67739955707236,7006.469156188661,23.1396025443565,47.31220910958451,-60.22386294644961
29.060348,1.89897259067362,-378.09718685088154,1848.9993737398402,-363.2627549956994,1090.2528908553638,2010.9987319291856,1087.1730430197847,4479.6887873278865,491.60946274479403,6872.636787787619,24.217641433705726,47.95887915832854,-60.84502418516294
29.061349,1.8998155620529245,-375.77358344603647,1848.9993700393873,-363.8310169317578,1092.1687837512325,2010.9987735167567,1087.1273590290084,4387.5441351614,505.3531525312066,6739.009046697761,25.322562992389308,48.55792891514851,-61.46517034280126
29.062355,1.9006606886634112,-373.4332225403291,1848.999366878292,-364.36096521447445,1094.0975826057982,2010.9988173424742,1087.1038064370318,4293.55464366099,518.8349312668133,6605.62960846282,26.452705041760247,49.109019022095694,-62.083277217299056
29.063351,1.9015079624125975,-371.07676746683234,1848.9993642728352,-364.8524240060354,1096.038851457654,2010.9988634170193,1087.1025254562614,4197.855620031166,531.9816415393072,6472.5388059773,27.6064293875381,49.61188933234076,-62.698308401201544
29.064354,1.9023573751456655,-368.7048889086977,1848.9993622391387,-365.3052395288992,1097.992148874317,2010.9989117490866,1087.1236432340625,4100.583731327262,544.7207160758123,6339.773761988682,28.78212892406273,50.06636219588858,-63.30921784583788
29.065354,1.903208918645611,-366.3182643951054,1848.999360793145,-365.7192801772897,1099.9570281983574,2010.9989623453273,1087.167273642162,4001.8766687248476,556.9803900408444,6207.368520456021,29.978234531084354,50.47234542898911,-63.91495260444068
29.066357,1.9040625846333918,-363.91757779677357,1848.999359950599,-366.09443661879425,1101.9330377923525,2010.9990152102916,1087.233517070714,3901.87281640029,568.6899153276559,6075.354176071941,31.193221692366187,50.82983487691957,-64.5144557518752
29.067356,1.9049183647680799,-361.50351882182815,1848.999359727026,-366.4306218861968,1103.9197212822332,2010.9990703463734,1087.3224602271844,3800.7109260274274,579.7797764010194,5943.759001559969,32.42561676724619,51.138916477601114,-65.10666947527902
29.068357,1.9057762506470137,-359.07678251283306,1848.9993601377103,-366.7277714596653,1105.9166177985846,2010.9991277537563,1087.4341759402218,3698.5297978633075,590.1819072053053,5812.608572632434,33.674002850004136,51.39976773373223,-65.6905383261064
29.06936,1.9066362338059557,-356.63806874577125,1848.9993611976736,-366.9858433394056,1107.923262215478,2010.9991874303612,1087.5687229686876,3595.4679693653175,599.8299086032491,5681.925890730816,34.93702515721783,51.6126585038542,-66.26501261981615
29.070361,1.9074983057192505,-354.1880817317608,1848.9993629216553,-367.2048181088821,1109.9391853864224,2010.9992493717907,1087.726145816025,3491.663412250996,608.6592657588656,5551.731503866285,36.21339588962363,51.77795102830414,-66.82905196493189
29.071365,1.9083624577999854,-351.7275295222788,1848.9993653240901,-367.38469898869704,1111.9639143770273,2010.9993135712782,1087.906474550159,3387.2532388790337,616.6075648233704,5422.043626030312,37.50189852168251,51.89609911476948,-67.38162889881838
29.072363,1.9092286814001527,-349.25712351865366,1848.999368419086,-367.5255118812101,1113.9969726939685,2010.9993800196378,1088.1097246291147,3282.373418794382,623.6147082265313,5292.878255751823,38.80139147880735,51.96764642020914,-67.92173260360059
29.073364,1.9100969678108146,-346.77757798657245,1848.9993722204038,-367.62730540596857,1116.0378805098676,2010.9994487052134,1088.3358967325653,3177.1585062413137,629.6231278183702,5164.2492944378055,40.11081116911816,51.993223780807256,-68.44837267233191
29.074365,1.9109673082622711,-344.2896095763382,1848.999376741432,-367.69015092601023,1118.086154883697,2010.9995196138295,1088.584976599511,3071.741379405024,634.5779950485698,5036.168665149649,41.429174343818175,51.97354555871814,-68.96058289272048
29.075363,1.91183969392423,-341.7939368495935,1848.9993819951653,-367.71414256508626,1120.1413099763527,2010.9995927287462,1088.8569348723101,2966.2529920943516,638.427427314639,4908.646432439988,42.75557976769224,51.90940499321476,-69.4574250134017
29.076366,1.9127141159059788,-339.29127981320954,1848.9993879941833,-367.69939721584467,1122.2028572610657,2010.999668030611,1089.1517269472802,2860.8221385251354,641.1226895565327,4781.690923808154,44.08920918847552,51.801668564331585,-69.93799245602881
29.077367,1.9135905652565588,-336.782359461016,1848.9993947506275,-367.64605453900094,1124.2703057283484,2010.9997454974161,1089.4692928321006,2755.575231805733,642.6183901269188,4655.308853231817,45.42932760065701,51.65126939894607,-70.40141393558751
29.078369,1.9144690329649405,-334.2678973240207,1848.9994022761796,-367.5542769535134,1126.3431620852073,2010.9998251044542,1089.8095570102516,2650.636096663765,642.8726699245087,4529.505447104486,46.77528280563484,51.45919977167269,-70.84685695149308
29.079372,1.9153495099602031,-331.7486150297387,1848.9994105820372,-367.42424961776817,1128.4209309483822,2010.9999068242776,1090.1724283127276,2546.1257768864602,641.8473837445001,4404.284572761293,48.12650427633767,51.22650277472171,-71.27353111320146
29.080376,1.9162319871117155,-329.2252338712161,1848.9994196788905,-367.2561804017686,1130.5031150313923,2010.999990626661,1090.5577997972712,2442.162357876029,639.508272776574,4279.6488696167935,49.482501340949256,50.95426325088221,-71.68069126616079
29.081372,1.9171164552293192,-326.69847438630137,1848.9994295769004,-367.0502998503127,1132.5892153252007,2011.0000764785643,1090.965548635383,2338.860804645804,635.8251271680646,4155.599882776439,50.842860707388155,50.643598101407065,-72.06764038685627
29.082375,1.9180029050635128,-324.16905594767854,1848.999440285674,-366.80686113713097,1134.6787312723359,2011.0001643440971,1091.3955360073587,2236.3328155017284,630.7719375685379,4032.138198824422,52.207243357252835,50.295646095683054,-72.43373221937875
29.083374,1.9188913273056387,-321.6376963641403,1848.9994518142414,-366.5261400099451,1136.7711609343405,2011.0002541844858,1091.847607005625,2134.6866915663554,624.3270345823169,3909.263583340024,53.57538084423409,49.91155732241823,-72.77837363020745
29.084377,1.919781712588076,-319.1051114935396,1848.9994641710348,-366.20843472639683,1138.866001152454,2011.0003459580419,1092.3215905466393,2034.0272222085289,616.473215077278,3786.9751195559893,54.94707103689095,49.49248243314093,-73.10102666242938
29.085378,1.9206740514844314,-316.57201486781634,1848.9994773638648,-365.8540659807841,1140.9627477014828,2011.00043962013,1092.8172992916418,1934.4555863416215,607.197854330985,3665.271347448515,56.32217334901677,49.039561838363404,-73.4012102750625
29.086381,1.9215683345097314,-314.0391173304525,1848.9994913998974,-365.4633768215275,1143.0608954368581,2011.0005351231418,1093.3345295765469,1836.0692694477639,596.4930030382616,3544.150402440917,57.70060350278804,48.55391502456882,-73.6785017572131
29.08738,1.922464552120622,-311.5071266866617,1848.9995062856308,-365.03673255927515,1145.15993843492,2011.0006324164722,1093.873061351281,1738.961996076829,584.3554682571952,3423.610152813989,59.08232787088584,48.036630165567274,-73.93253781035808
29.088384,1.9233626947155666,-308.97674736657166,1848.9995220268713,-364.5745206655416,1147.2593701265193,2011.0007314464963,1094.4326581288717,1643.2236774594594,570.7868774333051,3303.6483348475904,60.46735744428531,47.48875420400761,-74.1630152951604
29.089389,1.9242627526350466,-306.448680101605,1848.9995386287112,-364.07715066175695,1149.3586834240596,2011.000832156548,1095.013066944612,1548.9403737659093,555.7937247146557,3184.26268467267,61.85574147283952,46.911283577240475,-74.36969164207916
29.090387,1.925164716161763,-303.9236216142163,1848.999556095507,-363.54505399858755,1151.4573708421474,2011.0009344869056,1095.6140183256261,1456.1942704396054,539.3873988546503,3065.4510657936717,63.24756082645855,46.305155755570986,-74.55238492782549
29.091386,1.9260685755208418,-301.4022643210869,1848.9995744308574,-362.97868392537407,1153.5549246120524,2011.0010383747747,1096.2352262711709,1365.0636679384977,521.5841920944864,2947.2115912507634,64.64292112578484,45.6712417495591,-74.7109736225965
29.092389,1.9269743208800418,-298.88529604983154,1848.9995936375801,-362.3785153495143,1155.6508367902154,2011.0011437542778,1096.876388244017,1275.6229841303127,502.4052895236142,2829.542739431495,66.04194569271843,45.01033972627724,-74.84539601606767
29.09339,1.9278819423499638,-296.37339976921743,1848.9996137176915,-361.74504468560235,1157.744599361075,2011.0012505564443,1097.53718517326,1187.9427685109656,481.8767385332201,2712.443462612898,67.4447683725449,44.32316985302197,-74.9556493333126
29.094391,1.9287914299842626,-293.86725333284744,1848.999634672384,-361.07878969412,1159.8357043345145,2011.0013587092042,1098.217281468912,1102.089727349161,460.0293981033536,2595.9132874164325,68.85152628017235,43.61037046224512,-75.04178855503106
29.095393,1.9297027737798609,-291.3675292362126,1848.9996565020058,-360.3802893094596,1161.9236438382572,2011.0014681373839,1098.916325048642,1018.1267588046629,436.8988677969701,2479.952406486348,70.26235252264794,42.87249560484105,-75.10392495957178
29.096394,1.9306159636771634,-288.8748943869703,1848.9996792060394,-359.65010345704246,1164.0079102055704,2011.001578762706,1099.6339473770233,936.1129970226614,412.52539647172085,2364.5617608522266,71.67736894854816,42.11001403148363,-75.14222440716347
29.097394,1.9315309895602757,-286.39000988826376,1848.9997027830816,-358.8888128592814,1166.087996058656,2011.0016905037926,1100.3697635176609,856.1038641718135,386.9537708606544,2249.7431126030383,73.0966789720553,41.32330961414341,-75.15690538947769
29.098401,1.9324478412572241,-283.9135308348528,1848.999727230823,-358.0970188301234,1168.1633943881359,2011.0018032761707,1101.1233721985716,778.1511293686344,360.2331843140955,2135.499107677226,74.5203605156816,40.51268319267358,-75.14823687010087
29.099398,1.9333665085401774,-281.4461061217878,1848.9997525460278,-357.2753430578918,1170.2335986290589,2011.0019169922823,1101.8943558911947,702.3029734157531,332.417086135037,2021.833328755993,75.94845911099287,39.67835580474509,-75.11653594364446
29.100399,1.9342869811256695,-278.9883782653205,1848.999778724515,-356.42442737613834,1172.2981027338717,2011.0020315614963,1102.6822809034052,628.6040582760266,303.56301207753927,1908.7503384310492,77.38098119184178,38.82047323173493,-75.06216534308437
29.1014,1.9352092486748282,-276.5409832357085,1848.9998057611404,-355.54493352220055,1174.3564012428171,2011.0021468901239,1103.486697486905,557.095600208419,273.73239670978285,1796.2557130003252,78.817887610081,37.93911176880323,-74.98553082649464
29.102401,1.9361333007936008,-274.1045503015393,1848.9998336497786,-354.63754288315295,1176.4079893522396,2011.0022628814393,1104.307139959358,487.81544550448183,242.99036846817168,1684.3560674228338,80.25908739977709,37.03428510489401,-74.8870784754764
29.1034,1.9370591270329858,-271.6797018851656,1848.9998623833046,-353.70295622883,1178.4523629812861,2011.0023794357019,1105.1431268416186,420.7981477857902,211.40552834379648,1573.0590721341082,81.70443181278937,36.10595217865148,-74.76729193799422
29.104402,1.9379867168892657,-269.2670534288162,1848.9998919535758,-352.741893431598,1180.4890188375111,2011.0024964501815,1105.9941610103988,356.07504585257703,179.04971324553702,1462.3734625827692,83.15370864656256,35.154025860501584,-74.62668964777957
29.105405,1.938916059804242,-266.86721327091766,1848.9999223514144,-351.75509317254705,1182.5174544818956,2011.0026138191886,1106.859729866697,293.6743411125217,145.9977451738459,1352.3090424918992,84.60663688427842,34.17838230081642,-74.46582205086277
29.106406,1.9398471451654717,-264.48078253213833,1848.9999535665931,-350.74331263377866,1184.5371683938044,2011.0027314341066,1107.7393055202992,233.62117366703467,112.32716741575724,1242.876681970015,86.06286166770833,33.17887078025687,-74.28526886720867
29.107409,1.9407799623065045,-262.10835501064116,1848.9999855878198,-349.7073271764671,1186.5476600364125,2011.0028491834316,1108.6323449906465,175.9376961913607,78.11796903610956,1134.0883116892105,87.52194962330987,32.15532390110196,-74.08563641197823
29.108408,1.9417145005071255,-259.7505170860122,1849.0000184027215,-348.6479300043793,1188.5484299231287,2011.002966952812,1109.538290424344,120.64314481501995,43.45229899443973,1025.9569144071195,88.98338456142235,31.107567966091526,-73.86755499668247
29.109408,1.9426507489935954,-257.4078476313119,1849.0000519978332,-347.5659318125478,1190.5389796855566,2011.0030846250927,1110.456569329574,67.7539062907209,8.414171263701311,918.4965151315317,90.4465635665721,30.035433401452465,-73.63167642549281
29.11041,1.9435886969388976,-255.08091793267954,1849.000086358583,-346.4621604208019,1192.518812143524,2011.0032020803635,1111.386594827649,17.283580832448763,-26.910837632498218,811.722171211511,91.9107934945283,28.938765091034753,-73.37867159646319
29.111409,1.944528333462985,-252.77029161590798,1849.0001214692795,-345.3374603918758,1194.4874313777175,2011.0033191960117,1112.3277659219282,-30.756959894375008,-62.43589721241544,705.6499635890285,93.37528788999064,27.817432497898523,-73.10922821196634
29.112412,1.945469647633028,-250.4765245793926,1849.0001573130987,-344.1926926338246,1196.444342805453,2011.00343584678,1113.279467784295,-76.35952003829716,-98.07323627748119,600.2969903644971,94.8391643386189,26.671339458629184,-72.8240485980497
29.113412,1.9464126284636638,-248.20016493284854,1849.0001938720745,-343.02873398649825,1198.389053260109,2011.0035519048258,1114.2410720593778,-119.51853237689637,-133.7344592989505,495.68136372247267,96.30144226882608,25.500433544788965,-72.52384762939876
29.114415,1.9473572649172493,-245.94175294118327,1849.0002311270894,-341.8464767918379,1200.321071074736,2011.003667239789,1115.2119371866636,-160.23101686178936,-169.33086443199983,391.82221113373953,97.76104122164162,24.304714895432358,-72.20935075540639
29.115413,1.948303545904116,-243.70182097290527,1849.0002690578651,-340.6468284477785,1202.2399061703577,2011.0037817188593,1116.1914087406456,-198.49654496369953,-204.77376163429034,288.73968159951573,99.21677960961219,23.084244434289488,-71.88129212313716
29.116421,1.9492514602828286,-241.48089345244696,1849.000307642955,-339.43071094556177,1204.1450701494582,2011.0038952068496,1117.1788197891108,-234.3172097846108,-239.9747893712889,186.45495753460722,100.66737398681224,21.839151394837838,-71.54041279406579
29.117418,1.9502009968604426,-239.2794868157787,1849.0003468597363,-338.1990603902852,1206.0360763951446,2011.0040075662735,1118.1734912696513,-267.6976018103529,-274.84622840692776,84.99027270132648,102.11143885096288,20.569640086043396,-71.18745905274325
29.11842,1.951152144392763,-237.09810946869123,1849.0003866844056,-336.95282650453214,1207.9124401764532,2011.004118657426,1119.174732384459,-298.6447900938489,-309.30131120597076,-15.63106359172956,103.5474869955482,19.275995841254463,-70.8231808066168
29.119421,1.9521048915846069,-234.9372617471279,1849.0004270919737,-335.6929721149538,1209.7736787602566,2011.004228338469,1120.1818410134345,-327.16830858683954,-343.2545255143001,-115.38463601737982,104.97393042531459,17.958590102971375,-70.44833007691916
29.120421,1.953059227090067,-232.79743587895211,1849.0004680562608,-334.4204726216972,1211.6193115302087,2011.004336465521,1121.1941041456143,-353.28014727566887,-376.62191073594806,-214.24488668188695,106.38908184359025,16.617884607505633,-70.06365958082772
29.121423,1.9540151395127785,-230.6791159465433,1849.0005095498948,-333.1363154505982,1213.4488601131413,2011.0044428927529,1122.2107983288938,-376.9947477237549,-409.32134579170673,-312.18507289904124,107.79115671539174,15.254434646137204,-69.6699214050568
29.122426,1.9549726174061888,-228.5827778496248,1849.0005515443092,-331.84149948808636,1215.2618485133103,2011.0045474724845,1123.2311901379906,-398.32900257853055,-441.2728272237642,-409.1772198694007,109.17827590677598,13.868891392913067,-69.26786577072332
29.123425,1.9559316492738257,-226.50888926773732,1849.000594009741,-330.53703449877526,1217.0578032548615,2011.0046500552878,1124.2545366605607,-417.3022585625642,-472.39873640351556,-505.19206901166655,110.54846889833038,12.462003302784643,-68.85823988864101
29.12443,1.9568922235695687,-224.45790962178552,1849.0006369152327,-329.2239405257421,1218.8362535328652,2011.0047504900929,1125.2800860013551,-433.93632243575775,-502.624094804057,-600.19902283029,111.8996775686792,11.03461659638678,-68.44178690303119
29.125435,1.9578543286979235,-222.43029003410084,1849.0006802286346,-327.9032472735289,1220.5967313732374,2011.0048486242993,1126.3070778042681,-448.25546938645596,-531.8768064126858,-694.1660873106478,113.22976054180874,9.58767485895793,-68.01924491997256
29.126432,1.9588179530142973,-220.42647328648155,1849.0007239166064,-326.5759934739309,1222.338771801837,2011.0049443038904,1127.3347437920927,-460.2864532828145,-560.0878864792517,-787.0598129094888,114.53649808933483,8.122217790864761,-67.59134611485928
29.127431,1.959783084825276,-218.4468937756893,1849.0007679446228,-325.2432262346693,1224.0619130229995,2011.0050373735528,1128.3623083237694,-470.0585181913271,-587.1916759203802,-878.8452352545024,115.81759757522828,6.63937915630072,-67.15881591087856
29.128432,1.9607497123889035,-216.49197746590409,1849.0008122769789,-323.90600037107987,1225.7656966077368,2011.0051276767997,1129.3889889688821,-477.6034105472188,-613.1260408243181,-969.4858166844149,117.07069942590327,5.140383984992654,-66.72237221835098
29.129434,1.9617178239149613,-214.5621418376623,1849.0008568767955,-322.56537772098335,1227.449667691797,2011.0052150560994,1130.413997099121,-482.9553913422608,-637.832556623329,-1058.9433897519746,118.29338360323887,3.6265450886243333,-66.28272472308976
29.130437,1.9626874075652514,-212.65779583282756,1849.0009017060295,-321.22242644293783,1229.113375183743,2011.005299353006,1131.4365384964035,-486.1512476804881,-661.2566766172912,-1147.1781037784453,119.48317655259048,2.099258958391258,-65.84057421106499
29.131436,1.9636584514538815,-210.77933979517152,1849.0009467254815,-319.8782202981098,1230.7563719831712,2011.005380408297,1132.455813977318,-487.23030304221663,-683.3478846406748,-1234.1483754915018,120.63755859271735,0.560001112122223,-65.39661191671807
29.132438,1.9646309436475522,-208.9271654061703,1849.0009918948083,-318.5338379160334,1232.3782152091537,2011.0054580621133,1133.4710200335194,-486.2344255921256,-704.0598317629494,-1319.8108447003558,121.75397171026164,-0.989679041373292,-64.95151888314834
29.133438,1.9656048721658448,-207.10165561565321,1849.001037172535,-317.19036204456313,1233.9784664389479,2011.0055321541047,1134.4813494876742,-483.2080338677584,-723.3504569976169,-1404.1203358643659,122.82982771812891,-2.548163756452044,-64.50596532390335
29.134455,1.9665802249815099,-205.30318456697302,1849.00108251607,-315.84887878435995,1235.556691956973,2011.0056025235779,1135.4859921645234,-478.19809918959464,-741.1820920660747,-1487.029826296513,123.86251673472384,-4.113772864449988,-64.06060997813364
29.13545,1.9675569900207592,-203.53211751640188,1849.0011278817194,-314.5104768082865,1237.1124630140132,2011.0056690096478,1136.4841355765984,-471.2541441412671,-757.5215503189679,-1568.4904216138286,124.84941593924943,-5.684769994967458,-63.616099453344
29.136452,1.96853515516356,-201.78881074649172,1849.001173224705,-313.1762465661216,1238.6453560965626,2011.005731451394,1137.474965624083,-462.42823647675056,-772.3401999601864,-1648.4513389066565,125.78789855696287,-7.259369059202006,-63.173067552738004
29.137453,1.9695147082439282,-200.07361147317525,1849.0012184991813,-311.8472794750415,1240.1549532061872,2011.0057896880196,1138.4576673082993,-451.77497781900865,-785.6140217486172,-1726.8598979515184,126.67534302747988,-8.835740955963379,-62.73213458699963
29.138455,1.9704956370502262,-198.38685774642113,1849.0012636582553,-310.5246670963492,1241.6408421487426,2011.0058435590151,1139.4314254582464,-439.35148652100816,-797.3236513719785,-1803.6615206426638,127.50914230931411,-10.412020465925988,-62.293906673071795
29.139455,1.9714779293254603,-196.72887834429412,1849.0013086540096,-309.2095002989705,1243.10261683325,2011.005892904325,1140.3954254696073,-425.21737406553575,-807.4544066973316,-1878.799738669634,128.2867132750219,-11.986313303292011,-61.85897502487541
29.140455,1.9724615727675794,-195.09999266030823,1849.0013534375232,-307.90286841026773,1244.5398775802005,2011.0059375645185,1141.3488540556061,-409.4347143859437,-815.9963001057652,-1952.216209327135,129.00550615339364,-13.556703296203722,-61.42791524278591
29.141458,1.973446555029779,-193.500510583997,1849.0013979588978,-306.60585835475763,1245.9522314390222,2011.005977380965,1142.2909000090644,-392.0680054972185,-822.9440361155877,-2023.8507392141657,129.66301397764542,-15.121259667788783,-61.001286609887565
29.14246,1.9744328637208044,-191.93073237466209,1849.0014421672824,-305.3195537813524,1247.339292514408,2011.006012196014,1143.220754974982,-373.18412283702406,-828.2969944904689,-2093.6413154666307,130.256782000938,-16.678044388544574,-60.57963140347018
29.143462,1.975420486405255,-190.39094852829632,1849.0014860109015,-304.0450341797746,1248.7006823011607,2011.0060418531727,1144.1376142329302,-352.85226373089336,-832.0591990178592,-2161.5241440760724,130.78441704233944,-18.225119567961535,-60.16347422995972
29.144466,1.9764094106038907,-188.88143963771367,1849.0015294370826,-302.7833739868311,1250.0360300271755,2011.0060661972936,1145.040677488525,-331.1438824155506,-834.2392721305126,-2227.4336947801526,131.24359672749944,-19.76055484933266,-59.75332139063967
29.145462,1.9773996237939397,-187.40247624595432,1849.0015723922882,-301.53564168326193,1251.3449730041402,2011.0060850747602,1145.9291496732023,-308.1326150801375,-834.8503755319573,-2291.302751970097,131.6320785891707,-21.282434767578714,-59.34966028432409
29.146465,1.9783911134094092,-185.95431869307058,1849.0016148221487,-300.30289888191413,1252.6271569854935,2011.0060983336787,1146.8022417514935,-283.89419441727387,-833.9101369769573,-2353.0624710467373,131.94770899379228,-22.788866026955265,-58.952958851778455
29.147464,1.9793838668413961,-184.53721695643432,1849.001656671497,-299.0861994080234,1253.8822365311455,2011.0061058240724,1147.6591715349698,-258.50635321464654,-831.4405633516872,-2412.642439668646,132.18843186197043,-24.277984654738233,-58.56366506531155
29.148466,1.9803778714384,-183.15141048474365,1849.0016978844026,-297.88658837241786,1255.1098753784327,2011.0061073980758,1148.499164501993,-232.04871656341894,-827.467940196507,-2469.970743370393,132.3522971529883,-25.747962988456194,-58.18220646570882
29.149466,1.9813731145066378,-181.7971280259422,1849.0017384042096,-296.70510123849306,1256.3097468187464,2011.006102910135,1149.3214546223858,-204.60268231249816,-822.0227178180374,-2524.9740350826796,132.43746908647896,-27.197016457006768,-57.808989747587106
29.150472,1.9823695833103603,-180.47458744929895,1849.0017781735762,-295.5427628838352,1257.4815340792495,2011.0060922172095,1150.1252851861138,-176.25128945795873,-815.1393841479363,-2577.5776081551903,132.4422340779589,-28.62341011895451,-57.444400393247214
29.151471,1.983367265072169,-179.18399556193052,1849.0018171345148,-294.40058665740366,1258.6249307090657,2011.006075178975,1150.9099096350403,-147.0790742251066,-806.8563245246422,-2627.705472563793,132.36500836865918,-30.02546492397985,-57.088802354085544
29.152474,1.9843661469733354,-177.92554792007826,1849.0018552284348,-293.27957343321054,1259.739640969291,2011.0060516580304,1151.6745923967908,-117.1719136771204,-797.2156686020686,-2675.2804340729317,132.20434533354455,-31.40156366602856,-56.7425377775689
29.153479,1.9853662161541203,-176.69942863548687,1849.0018923961854,-292.1807106614659,1260.825380226153,2011.006021520108,1152.4186097197423,-86.61685676907318,-786.2631246258411,-2720.224176218686,131.95894245416503,-32.75015659952377,-56.405926776733054
29.154477,1.9863674597140977,-175.50581017726157,1849.0019285781038,-291.1049714181844,1261.8818753466055,2011.0059846342835,1153.1412505081187,-55.501942859255756,-774.0478013626512,-2762.457345075343,131.6276479447902,-34.06976669305887,-56.07926723824268
29.155476,1.9873698647124762,-174.3448531696107,1849.0019637140588,-290.05331345427743,1262.90886509562,2011.0059408731865,1153.8418171561498,-23.916007790653524,-760.6220180210026,-2801.899636865709,131.20946702112386,-35.35899449800567,-55.76283466434315
29.156477,1.9883734181684276,-173.21670618591187,1849.0019977435024,-289.0266782451832,1263.9061005344056,2011.005890113215,1154.5196263802338,8.051522236473112,-746.0411025616664,-2838.4698885700673,130.70356780099766,-36.616522612082775,-55.456882043588024
29.157478,1.9893781070614114,-172.12150553956783,1849.0020306055187,-288.0259900421113,1264.8733454187757,2011.0058322347502,1155.1740100480238,40.31084866558659,-730.3631788634782,-2872.0861717778607,130.10928682616446,-37.84111971985128,-55.16163974505535
29.15848,1.9903839183315022,-171.05937507214648,1849.0020622388759,-287.0521549260048,1265.8103765968642,2011.0057671223728,1155.8043160033471,72.77203000375054,-713.6489432847301,-2902.6658901071883,129.4261341939506,-39.03164419321313,-54.8773154308622
29.159483,1.991390838879721,-170.0304259393238,1849.0020925820784,-286.10605986534307,1266.7169844053763,2011.005694665081,1156.4099088858618,105.3452220829839,-695.9614312419463,-2930.125880587798,128.65379828716044,-40.18704723533977,-54.60409398213288
29.160482,1.9923988555683654,-169.03475639517234,1849.0021215734225,-285.1885717789293,1267.5929730635542,2011.005614756508,1156.990170944334,137.94092846168655,-677.3657745152269,-2954.3825194616807,127.79215009025658,-41.30637555134395,-54.342137434192416
29.161482,1.9934079552213422,-168.0724515753581,1849.0021491510545,-284.3005366048226,1268.4381610640196,2011.005527295142,1157.5445028424208,170.47026014167972,-657.9289500806215,-2975.3518329005447,126.841247079501,-42.38877352889692,-54.091584917667916
29.16249,1.9944181246245007,-167.14358327982893,1849.0021752530267,-283.4427783765903,1269.2523815596446,2011.0054321845435,1158.0723244558208,202.84520365657693,-637.7195213625689,-2992.949613170859,125.80133667449526,-43.433484912300145,-53.85255260335972
29.163485,1.995429350525968,-166.24820975559558,1849.0021998173572,-282.6160983080717,1270.035482745587,2011.0053293335684,1158.573075659655,234.97889647272515,-616.8073728904967,-3007.09154079491,124.67285923848681,-44.439853954455245,-53.625133650114776
29.164488,1.996441619636485,-165.38637548022254,1849.0022227820912,-281.82127388785364,1270.7873282356143,2011.005218656587,1159.0462171049244,266.7859085365974,-595.2634394305934,-3017.6933132607187,123.45645061495763,-45.407326032763955,-53.409398156398176
29.16549,1.997454918629744,-164.55811094666333,1849.0022440853647,-281.05905798467234,1271.5077974318328,2011.005100073701,1159.4912309828867,298.18252870365296,-573.1594307443969,-3024.670780825455,122.15294418836486,-46.335447717125454,-53.205393117723474
29.166492,1.9984692341427281,-163.763432450087,1849.0022636654687,-280.3301779649627,1272.1967858869405,2011.004973510964,1159.9076217761954,329.0870546944054,-550.5675531985509,-3027.940089937016,120.76337245746048,-47.223866280770906,-53.01314239350558
29.167491,1.999484552776052,-163.00234187735592,1849.002281460914,-279.635334823785,1272.8542056581268,2011.0048389006004,1160.2949169956557,359.4200851447069,-527.5602295137106,-3027.4178347678444,119.28896811039685,-48.07232864762748,-52.83264668820339
29.168493,2.000500861094304,-162.27482649982335,1849.0022974104988,-278.97520233036215,1273.479985651751,2011.0046961812238,1160.6526679014542,389.1048122499345,-504.20981799416245,-3023.021217315124,117.7311645918959,-48.88067977313646,-52.66388355278656
29.169495,2.00151814562639,-161.58085877012715,1849.0023114533772,-278.350426189461,1274.0740719579387,2011.0045452980528,1160.9804502077238,418.06731344752205,-480.5883326222542,-3014.6682164735466,116.09159615422578,-49.648860458889565,-52.50680741352148
29.170498,2.0025363928658786,-160.92039612365932,1849.0023235291258,-277.76162321985277,1274.6364281742426,2011.0043862031278,1161.2778647693276,446.2368405395744,-456.7671654320671,-3002.277766432171,114.37209738556395,-50.37690460524634,-52.36134963569676
29.171503,2.0035555892713464,-160.29338078539456,1849.0023335778162,-277.2093805510818,1275.1670357175208,2011.004218855525,1161.5445382497307,473.54610462740516,-432.81681259367616,-2985.76994468667,112.57470221134326,-51.06493591055014,-52.227418630089474
29.1725,2.0045757212667263,-159.6997395827619,1849.0023415400858,-276.694254839768,1275.6658941231944,2011.0040432215699,1161.7801237688593,499.9315552129271,-408.8066056418804,-2965.066169893514,110.70164236618403,-51.71316403084907,-52.10490000972207
29.173502,2.005596775241654,-159.13938376524231,1849.002347357212,-276.21677150666153,1276.1330213310525,2011.003859275044,1161.9843015298386,525.3336518180406,-384.80444927095203,-2940.0894097242603,108.75534533590795,-52.321880220060514,-51.99365680391238
29.174502,2.006618737551819,-158.6122088313734,1849.0023509711857,-275.7774239956594,1276.5684539567867,2011.0036669973958,1162.156779423529,549.6971264825687,-360.8765670899765,-2910.7643988066193,106.73843177091138,-52.891452477000485,-51.89352973593163
29.175503,2.0076415945193142,-158.11809436383967,1849.0023523247867,-275.376673055985,1276.9722475484543,2011.0034663779431,1162.2972936097908,572.971235523834,-337.08725669257154,-2877.0178667646487,104.65371237390737,-53.422320232332154,-51.80433756983953
29.176505,2.008665332432989,-157.65690387332097,1849.0023513616609,-275.0149460487174,1277.3444768270892,2011.0032574140776,1162.4056090744336,595.109998976493,-313.49865534150564,-2838.7787762930616,102.50418426672498,-53.9149886150302,-51.725877531246546
29.177506,2.0096899375488015,-157.2284846517654,1849.0023480263983,-274.6926362788413,1277.6852359107017,2011.0030401114616,1162.481520160839,616.072426179494,-290.1705175044525,-2795.978571119898,100.29302684238881,-54.3700223441265,-51.657925805828526
29.17851,2.0107153960901756,-156.83266763574406,1849.0023422646111,-274.41010235397385,1277.994638520937,2011.0028144842242,1162.5248510752638,635.8227260377382,-267.1600054031659,-2748.5514336272163,98.02359711002893,-54.7880392970205,-51.60023811839187
29.179509,2.011741694248356,-156.4692672805342,1849.002334023013,-274.16766757089835,1278.272818171679,2011.0025805551538,1162.5354563648698,654.3305005588697,-244.5214936557867,-2696.434551810586,95.69942454131262,-55.169703810299694,-51.55255039415858
29.180514,2.012768818182764,-156.13808144556583,1849.0023232494989,-273.9656193310153,1278.5199283389115,2011.0023383558862,1162.5132213675408,671.5709203499939,-222.30638900153042,-2639.568395164606,93.32420542809797,-55.51571977267976,-51.51457950268678
29.181509,2.013796754021356,-155.83889129185226,1849.0023098932245,-273.8042085857954,1278.73614261117,2011.0020879270885,1162.4580626325828,687.5248808540567,-200.56296599918565,-2577.8969989831558,90.90179676185444,-55.82682357232792,-51.48602408347761
29.182513,2.014825487860982,-155.57146119201116,1849.0022939046887,-273.6836493132911,1278.9216548199422,2011.0018293186374,1162.3699283114317,702.1791382098261,-179.33621948628675,-2511.3682564594415,88.43620964598392,-56.10377696261356,-51.46656545090976
29.183512,2.015855005767747,-155.3355386534663,1849.0022752358157,-273.6041180267362,1279.0766791494013,2011.0015625897956,1162.248798517524,715.5264237315233,-158.667734475351,-2439.934217862294,85.93160225243616,-56.347359911400176,-51.45586857478362
29.184515,2.016885293777373,-155.13085425540444,1849.0022538400365,-273.56575331623054,1279.2014502248892,2011.0012878093792,1162.0946856545245,727.5655361229059,-138.59557404841186,-2363.551395952057,83.39227233394436,-56.55836349948739,-51.45358313154962
29.185515,2.0179163378955596,-154.95712160004246,1849.002229672374,-273.5686554244755,1279.2962231795907,2011.001005055921,1161.907634712143,738.301410664819,-119.15418569272128,-2282.1810766827025,80.82264930282211,-56.73758293374986,-51.459344620290125
29.186518,2.0189481240983493,-154.8140372787419,1849.002202689526,-273.6128858574909,1279.3612736988848,2011.0007144178296,1161.6877235288123,747.7451647438339,-100.37432640055052,-2195.7896341178193,78.22728588653672,-56.885810739677126,-51.47277553666143
29.187518,2.0199806383324925,-154.70128085348722,1849.0021728499498,-273.6984670312067,1279.396898041884,2011.0004159935404,1161.4350630205497,755.9141192215822,-82.28300673598552,-2104.348848368538,75.61084936934171,-57.00383019610365,-51.49348659722367
29.188521,2.0210138665158133,-154.61851485422207,1849.002140113944,-273.8253819547831,1279.4034130397117,2011.0001098916625,1161.1497973753583,762.8317952789815,-64.90345395270721,-2007.8362252431646,72.97811242856663,-57.09240907194263,-51.5210780059552
29.189527,2.0220477945375745,-154.5653847925154,1849.0021044437347,-273.9935739514725,1279.3811560700995,2010.999796231118,1160.832104212572,768.5278865059414,-48.255094129902574,-1906.2353161833407,70.33394357402271,-57.152293721109054,-51.555140754354845
29.190525,2.0230824082588463,-154.54151919200606,1849.0020658035585,-274.20294641779304,1279.3304850079219,2010.9994751412721,1160.48219470659,773.0382061442443,-32.35355317949019,-1799.5360369516575,67.68329719915677,-57.1842035880944,-51.595257946367056
29.191524,2.0241176935128737,-154.54652963604988,1849.0020241597479,-274.4533626217398,1279.2517781513195,2010.999146762061,1160.1003136744932,776.404609527714,-17.210676467687552,-1687.7349834322738,65.03120325275835,-57.18882617322296,-51.64100613934855
29.192526,2.025153636105448,-154.58001083296767,1849.001979480816,-274.74464554071386,1279.1454341230992,2010.9988112441067,1159.686739627077,778.6748918978722,-2.8345666887432106,-1570.8357428104262,62.382756540149465,-57.16681250349089,-51.69195669234962
29.193525,2.0261902218152756,-154.64154069926693,1849.001931737542,-275.0765777398023,1279.0118717471375,2010.9984687488266,1159.2417847828874,779.9026619035453,10.770360470281242,-1448.8491983100014,59.743105662890876,-57.118773151652164,-51.74767711301832
29.194529,2.027227436394354,-154.7306804611824,1849.0018809030537,-275.44890129099593,1278.851529899556,2010.998119448536,1158.7657950448959,780.147191218017,23.603303426172467,-1321.7938255919657,57.117441606106254,-57.0452748421378,-51.807732394383045
29.19553,2.0282652655683404,-154.84697477485267,1849.001826952912,-275.8613177338802,1278.6648673344744,2010.997763526543,1158.2591499395014,779.4732408264314,35.666985192979205,-1189.6959788520212,54.51098598256786,-56.94683767677369,-51.87168633261236
29.196533,2.0293036950369263,-154.9899518654209,1849.0017698651957,-276.3134880782847,1278.4523624841947,2010.99740117723,1157.7222625176012,777.9508646486589,46.967547981285115,-1052.5901646051639,51.928978942793535,-56.82393300578083,-51.93910281666784
29.197534,2.0303427104742124,-155.1591236853186,1849.0017096205831,-276.8050328493239,1278.2145132337073,2010.997032606131,1157.155579217523,775.6551912682993,57.51443267745799,-910.5193011101388,49.3766667608293,-56.67698196038041,-52.009547080728446
29.198541,2.0313822975290834,-155.35398609195934,1849.0016462024362,-277.33553217520836,1277.9518366694522,2010.9966580299977,1156.5595796896657,772.6661846362337,67.32024403412925,-763.534961370648,46.85928910642697,-56.50635465311222,-52.08258691055688
29.199538,2.032422441825583,-155.57401904503885,1849.0015795968814,-277.9045259181518,1277.6648688023117,2010.996277676856,1155.9347765827501,769.0683847059958,76.40060245380901,-611.6975976552037,44.382066015972796,-56.31237004169436,-52.15779379570159
29.200538,2.0334631289632914,-155.81868682360596,1849.001509792892,-278.5115138486418,1277.3541642648538,2010.995891786051,1155.281715291634,764.9506290365716,84.77398329319087,-455.07674550595215,41.950184576376266,-56.09529644305487,-52.23474402057505
29.201539,2.0345043445177016,-156.08743826303524,1849.001436782368,-279.15595586328527,1277.0202959828864,2010.9955006082853,1154.6009736667022,760.4057564643155,92.46154465749878,-293.7512052600879,39.56878533770293,-55.85535267703032,-52.31301968893214
29.202542,2.0355460740405995,-156.37970701199995,1849.0013605602146,-279.8372722463833,1276.6638548214248,2010.9951044056431,1153.8931616848981,755.530293998272,99.48694469271231,-127.80919918621056,37.24294847156147,-55.592709814641445,-52.39220967795956
29.203541,2.036588303060443,-156.69491180950976,1849.0012811244217,-280.5548439753294,1276.2854492052222,2010.994703451606,1153.1589210825202,750.4241281322155,105.87614941851247,42.65149755791827,34.97767969356282,-55.30749350365424,-52.471910519974834
29.204545,2.0376310170827416,-157.0324567820437,1849.0011984761397,-281.3080130698679,1275.8857047140527,2010.9942980310568,1152.3989249499589,745.190161793361,111.65723217558333,217.52345381063128,32.77789597013731,-54.999786843488565,-52.551727211623195
29.205546,2.0386742015904384,-157.3917317607751,1849.001112619758,-282.0960829851867,1275.4652636529777,2010.9938884402734,1151.613877288611,739.933958164183,116.86016578653494,396.68950864516853,30.648411032947195,-54.669633781147866,-52.63127395247096
29.206548,2.039717842044293,-157.7721126188495,1849.0010235629773,-282.9183190487597,1275.0247845978768,2010.9934749869087,1150.804512530268,734.7633726228478,121.51660854957242,580.0227282940964,28.593920727900414,-54.31704299840362,-52.710174816806365
29.207552,2.0407619238832617,-158.1729616286431,1849.0009313168814,-283.7739489407941,1274.5649419165634,2010.9930579899626,1149.9715950193263,729.7881740523267,125.65968519834155,767.3863948884285,26.61898822992785,-53.941992257191366,-52.78806436374905
29.20855,2.0418064325248833,-158.59362783889318,1849.0008358960088,-284.6621632180724,1274.0864252658532,2010.992637779739,1149.1159184582361,725.1196567713218,129.3237639712351,958.6340279138606,24.728029159088276,-53.54443316510912,-52.8645881909223
29.209551,2.0428513533656614,-159.03344747155643,1849.0007373184228,-285.5821158809183,1273.5899390649952,2010.9922146977913,1148.2383053166568,720.8702443445474,132.54423094037216,1153.6094390379342,22.92529663853382,-53.12429631675888,-52.93940343591462
29.210553,2.043896671781449,-159.49174433821608,1849.0006356057795,-286.5329249829529,1273.0762019459173,2010.9917890968543,1147.3396062048432,717.1530865381303,135.35726275569985,1352.1468206947113,21.214866340940006,-52.68149676025267,-53.012179228101886
29.211553,2.0449423731278307,-159.96783027582245,1849.0005307833928,-287.5136732832419,1272.5459461807793,2010.991361340765,1146.420699211847,714.0816506994654,137.79959896367805,1554.0708685322816,19.6006215775848,-52.21593973201465,-53.082597091875165
29.212554,2.0459884427405144,-160.46100560151604,1849.0004228803002,-288.523408940375,1271.999917087363,2010.990931804368,1145.4824892091592,711.7693088601407,139.9083150623727,1759.1969375386238,18.086238493185924,-51.72752659726803,-53.15035130136804
29.213556,2.0470348659357134,-160.97055958624716,1849.0003119293235,-289.5611462479529,1271.4388724128714,2010.9905008734083,1144.525907120477,710.3289218848053,141.7205974543934,1967.3312313687509,16.67517143887889,-51.21616092855218,-53.21514918641573
29.214558,2.0480816280105345,-161.49577094687191,1849.0001979671272,-290.6258664108964,1270.8635816967408,2010.9900689444119,1143.5519091583285,709.8724220164673,143.27352145440935,2178.2710241062687,15.370638603865125,-50.68175465079329,-53.27671138950066
29.215556,2.049128714243366,-162.0359083563691,1849.0000810342756,-291.7165183619318,1270.2748256131092,2010.989636424554,1142.5614760283372,710.5103951975482,144.60383349725703,2391.804913410917,14.17560799210911,-50.124234179536394,-53.334772073618595
29.216564,2.050176109894266,-162.5902309717893,1848.9999611752876,-292.8320196175444,1269.6733952936295,2010.9892037315092,1141.5556121019665,712.3516645737094,145.74773867433137,2607.7131037358004,13.092783833724269,-49.543546479390514,-53.38907908114503
29.217561,2.0512238002053507,-163.157988979513,1848.9998384386884,-293.9712571726322,1269.0600916313456,2010.9887712932893,1140.5353445586288,715.5028766117302,146.74069469877324,2825.76771804994,12.124593521827816,-48.93966497246858,-53.4393940437521
29.218562,2.052271770401181,-163.73842415736115,1848.9997128770576,-295.1330884330309,1268.4357245663948,2010.988339548068,1139.5017224981034,720.0680912815318,147.61721336307085,3045.7331362803434,11.273175165330107,-48.312595231112795,-53.48549244320439
29.219562,2.053320005689155,-164.33077045306763,1848.999584547076,-296.31634218502114,1267.8011123543333,2010.9879089439917,1138.4558160242518,726.1483777640963,148.41067050559317,3267.3663585006348,10.540365846800963,-47.66238039481841,-53.527163622591296
29.220565,2.0543684912599,-164.93425457858956,1848.9994535095677,-297.51981960086937,1267.1570808179104,2010.9874799389743,1137.3987153010617,733.8414171499086,149.15312544516445,3490.4173907480103,9.927690672368183,-46.989106257354884,-53.56421074738933
29.221565,2.0554172122876597,-165.5480966197,1848.9993198295426,-298.7422952793945,1266.5044625831501,2010.987053000479,1136.3315295820892,743.241113585151,149.87515077546746,3714.629651253543,9.436352697481421,-46.29290597613032,-53.59645071570847
29.222567,2.056466153930684,-166.17151066027492,1848.9991835762305,-299.98251832049806,1265.8440963006278,2010.9866286052818,1135.2553862144064,754.4372153039577,150.6056733347722,3939.7403948270294,9.067223808089388,-45.57396436167104,-53.62371401708202
29.223567,2.057515301331622,-166.80370542065657,1848.999044823115,-301.2392134325389,1265.1768258528552,2010.986207239224,1134.171429618199,767.5149469537103,151.37182708264055,4165.481153148332,8.820836630973137,-44.832521710751,-53.64584453918936
29.224569,2.0585646396179142,-167.44388490944564,1848.998903647963,-302.51108207138356,1264.503499548723,2010.9857893969454,1133.080820243198,782.5546545762718,152.1988185254919,4391.578188781127,8.697377539361165,-44.068877152104626,-53.66269932208908
29.225574,2.0596141539021864,-168.09124908804515,1848.998760132855,-303.7968036099086,1263.824969305968,2010.9853755816036,1131.9847335031686,799.6314645513493,153.10980523887508,4617.752960838289,8.696680810551767,-43.28339147828041,-53.67414826011029
29.226572,2.0606638292826394,-168.74499454725026,1848.9986143642066,-305.0950365366853,1263.142089822673,2010.9849663045823,1130.8843586897178,818.8149577394407,154.12578793761753,4843.722600384862,8.818223981569519,-42.476489440377215,-53.68007375268754
29.227571,2.0617136508434433,-169.40431519515042,1848.998466432786,-306.404419682525,1262.4557177388315,2010.984562085179,1129.7808978667201,840.1688599821751,155.26551644758936,5069.200393857404,9.061124437865569,-41.64866148386579,-53.68037030722559
29.228574,2.0627636036551302,-170.068402955582,1848.9983164337311,-307.7235734735157,1261.7667107890338,2010.9841634502807,1128.6755647466957,863.7507500290112,156.54540983702597,5293.8962729991335,9.424137260002313,-40.800464903868196,-53.674944099486964
29.229575,2.0638136727749874,-170.73644847634355,1848.9981644665606,-309.05110120913633,1261.0759269473474,2010.9837709340206,1127.5695835504928,889.6117858636812,157.97949087422904,5517.517310050208,9.905654345187408,-39.93252439818911,-53.66371249966279
29.230578,2.064863843247449,-171.40764184636018,1848.9980106351807,-310.38559036398755,1260.384223565487,2010.9833850774219,1126.4641878516506,917.7964503045769,159.57933489534278,5739.768217183365,10.503704814783946,-39.04553199737093,-53.64660357460214
29.231577,2.0659141001044916,-172.0811733209603,1848.9978550478866,-311.7256139116408,1259.6924565053753,2010.9830064280247,1125.360619406833,948.3423166540282,161.35403309357332,5960.351849429165,11.215956715099793,-38.14024635422833,-53.62355557805219
29.232579,2.066964428366027,-172.75623405440646,1848.9976978173638,-313.0697316690664,1259.001479267213,2010.9826355394987,1124.2601269737422,981.2798350757139,163.3101701808995,6178.969710584999,12.039720016129658,-37.217491381229536,-53.594516441029455
29.233581,2.0680148130402998,-173.43201683880136,1848.9975390606817,-314.41649166006954,1258.3121421141907,2010.9822729712384,1123.163965117935,1016.6321402903485,165.45181632407287,6395.3224618407785,12.97195091099922,-36.27815423248361,-53.55944327396719
29.234586,2.0690652391242796,-174.1077168484717,1848.9973788992813,-315.7644314961295,1257.6252911949907,2010.9819192879456,1122.0733930099852,1054.4148810994925,167.78053321571022,6609.11043307446,14.0092574174011,-35.323182637335556,-53.51830189165055
